{"type":"Topology","objects":{"subunits":{"type":"GeometryCollection","name":"AND_subunits","crs":{"type":"name","properties":{"name":"urn:ogc:def:crs:OGC:1.3:CRS84"}},"geometries":[{"type":"Polygon","properties":{"name":"Ordino","fips":"AN05","postal":null,"scalerank":10,"country":"AND","latitude":42.6036,"longitude":1.52437,"type":null},"id":"AD-05","arcs":[[0,1,2]]},{"type":"Polygon","properties":{"name":"Canillo","fips":"AN02","postal":null,"scalerank":10,"country":"AND","latitude":42.5842,"longitude":1.60543,"type":null},"id":"AD-02","arcs":[[3,4,-2]]},{"type":"Polygon","properties":{"name":"Encamp","fips":"AN03","postal":null,"scalerank":10,"country":"AND","latitude":42.5381,"longitude":1.6441,"type":null},"id":"AD-03","arcs":[[5,6,7,-5]]},{"type":"Polygon","properties":{"name":"La Massana","fips":"AN04","postal":null,"scalerank":10,"country":"AND","latitude":42.55,"longitude":1.47083,"type":null},"id":"AD-04","arcs":[[-3,-8,8,9,10]]},{"type":"Polygon","properties":{"name":"Sant Julià de Lòria","fips":"AN06","postal":null,"scalerank":10,"country":"AND","latitude":42.4511,"longitude":1.47975,"type":null},"id":"AD-06","arcs":[[11,-10,12,13]]},{"type":"Polygon","properties":{"name":"Escaldes-Engordany","fips":"AN08","postal":null,"scalerank":10,"country":"AND","latitude":42.495,"longitude":1.59428,"type":null},"id":"AD-08","arcs":[[14,-14,15,-7]]},{"type":"Polygon","properties":{"name":"Andorra la Vella","fips":"AN07","postal":null,"scalerank":10,"country":"AND","latitude":42.5128,"longitude":1.51066,"type":null},"id":"AD-07","arcs":[[-16,-13,-9]]}]},"places":{"type":"GeometryCollection","name":"AND_places","crs":{"type":"name","properties":{"name":"urn:ogc:def:crs:OGC:1.3:CRS84"}},"geometries":[{"type":"Point","properties":{"name":"Andorra","scalerank":6,"subregion":null,"latitude":42.500001,"longitude":1.516486},"id":"Q1863","coordinates":[33498,37191]}]}},"arcs":[[[12536,78561],[4294,17855],[8818,-550],[8185,3758],[4265,375],[15129,-12434]],[[53227,87565],[388,-6974],[0,-4044],[-6636,-2696],[-2903,-3370],[-1866,-4380],[-622,-5392]],[[41588,60709],[-6428,1011],[-8709,2696],[-2488,3033],[-1659,5728],[-1451,2359],[-2903,674],[-3111,0],[-2303,2351]],[[53227,87565],[3055,-1721],[31700,-3747],[-2421,-9202],[4496,-3419],[6484,-2412],[3458,-6030],[-7003,-784],[-5101,-5948],[-1280,-3908]],[[86615,50394],[-1897,2228],[-2695,2022],[-2903,1685],[-1037,5728],[-1037,4044],[-3940,-2022],[-5391,0],[-5806,-1011],[-6635,-1685],[-9331,0],[-4355,-674]],[[86615,50394],[-1803,-5505],[-1009,-11310],[-2651,-3770],[-3112,-1745],[-3372,-46],[-3314,1451],[-1499,1780]],[[69855,31249],[-896,5535],[-3525,3707],[-3318,2022],[-5806,674],[-4354,-1011],[-3732,2358],[-830,4044],[-2073,1348],[-3525,-337]],[[41796,49589],[0,6403],[-208,4717]],[[41796,49589],[-3526,0],[-3317,-1685],[-3940,-1011],[-4147,-3369],[-4355,-3033]],[[22511,40491],[-3939,-1348],[-3733,-2359],[-2707,-2620]],[[12132,34164],[-951,7166],[-4899,5245],[-6282,-1007],[922,5152],[4611,9600],[29,1745],[-2334,1896],[345,4274],[1557,4578],[1239,2728],[6167,3020]],[[46344,11055],[-7872,-1232],[-1556,-2131],[-1210,-2599],[-1758,-2576],[-3228,-2142],[-2276,-375],[-16888,2705],[-3199,2856],[0,5679],[-8040,15080],[4726,2587],[1585,492],[5504,4765]],[[22511,40491],[622,-6740],[1037,-4380],[1659,-2022]],[[25829,27349],[4769,-1348],[3733,-1685],[9745,1685],[2903,-674],[-1866,-4044],[415,-4717],[816,-5511]],[[69855,31249],[-1844,-1920],[-3026,-12223],[-8934,-4531],[-9707,-1520]],[[25829,27349],[5599,4043],[3939,8425],[1452,2359],[3110,3706],[1867,3707]]],"transform":{"scale":[0.000003586380273803237,0.0000022068641086408853],"translate":[1.406456339000101,42.42867747000004]}}