{"type":"Topology","objects":{"subunits":{"type":"GeometryCollection","name":"COK_subunits","crs":{"type":"name","properties":{"name":"urn:ogc:def:crs:OGC:1.3:CRS84"}},"geometries":[{"type":"Polygon","properties":{"name":"Mangaia","fips":null,"postal":null,"scalerank":10,"country":"COK","latitude":-21.9367,"longitude":-157.909,"type":null},"id":"CK-X03~","arcs":[[0]]},{"type":"Polygon","properties":{"name":"Mitiaro","fips":null,"postal":null,"scalerank":10,"country":"COK","latitude":-19.8389,"longitude":-157.707,"type":null},"id":"CK-X05~","arcs":[[1]]},{"type":"Polygon","properties":{"name":"Penrhyn","fips":null,"postal":null,"scalerank":10,"country":"COK","latitude":-8.99614,"longitude":-157.956,"type":null},"id":"CK-X11~","arcs":[[2]]},{"type":"Polygon","properties":{"name":"Rarotonga","fips":null,"postal":null,"scalerank":10,"country":"COK","latitude":-21.2088,"longitude":-159.789,"type":null},"id":"CK-X04~","arcs":[[3]]},{"type":"Polygon","properties":{"name":"Mauke","fips":null,"postal":null,"scalerank":10,"country":"COK","latitude":-20.1852,"longitude":-157.312,"type":null},"id":"CK-X06~","arcs":[[4]]},{"type":"MultiPolygon","properties":{"name":"Atiu","fips":null,"postal":null,"scalerank":10,"country":"COK","latitude":-20.0232,"longitude":-158.089,"type":null},"id":"CK-X01~","arcs":[[[5]],[[6]],[[7]]]},{"type":"Polygon","properties":{"name":"Aitutaki","fips":null,"postal":null,"scalerank":10,"country":"COK","latitude":-19.2709,"longitude":-158.892,"type":null},"id":"CK-X02~","arcs":[[8]]},{"type":"Polygon","properties":{"name":"Pukapuka","fips":null,"postal":null,"scalerank":10,"country":"COK","latitude":-10.9163,"longitude":-165.802,"type":null},"id":"CK-X08~","arcs":[[9]]},{"type":"Polygon","properties":{"name":"Manihiki","fips":null,"postal":null,"scalerank":10,"country":"COK","latitude":-10.4098,"longitude":-160.963,"type":null},"id":"CK-X10~","arcs":[[10]]},{"type":"Polygon","properties":{"name":"Rakahanga","fips":null,"postal":null,"scalerank":10,"country":"COK","latitude":-10.0641,"longitude":-161.065,"type":null},"id":"CK-X09~","arcs":[[11]]},{"type":"Polygon","properties":{"name":"Palmerston","fips":null,"postal":null,"scalerank":10,"country":"COK","latitude":-18.8968,"longitude":-159.771,"type":null},"id":"CK-X07~","arcs":[[12]]}]},"places":{"type":"GeometryCollection","name":"COK_places","crs":{"type":"name","properties":{"name":"urn:ogc:def:crs:OGC:1.3:CRS84"}},"geometries":[{"type":"Point","properties":{"name":"Avarua","scalerank":6,"subregion":null,"latitude":-21.196226,"longitude":-159.785437},"id":"Q170482","coordinates":[70950,5716]}]}},"arcs":[[[92694,472],[156,-36],[129,-73],[240,-181],[33,-86],[-134,-56],[-195,-31],[-148,-9],[-173,13],[-123,38],[-96,64],[-90,90],[55,91],[105,89],[125,65],[116,22]],[[95356,16715],[-23,-162],[32,-212],[-12,-196],[-157,-112],[0,105],[-62,76],[-80,49],[-69,58],[-30,106],[54,62],[258,180],[89,46]],[[92622,99737],[-248,0],[-197,37],[-218,87],[-131,90],[64,48],[730,-214],[0,-48]],[[70804,5794],[228,-6],[235,-38],[184,-75],[75,-117],[4,-156],[-21,-71],[-64,-62],[-324,32],[-40,-6],[-224,72],[-467,-23],[-155,83],[88,58],[70,144],[17,92],[93,50],[301,23]],[[99999,13729],[-61,-128],[-124,-56],[-138,26],[-106,115],[4,134],[122,46],[167,-33],[136,-104]],[[91006,14968],[-41,-143],[-174,-53],[-218,30],[-174,116],[-62,186],[175,29],[270,-68],[224,-97]],[[88774,16212],[-151,82],[56,-12],[95,-70]],[[88546,16381],[-72,-46],[-42,-5],[17,21],[97,30]],[[81057,20548],[-145,38],[-149,75],[-64,71],[117,25],[58,-40],[32,-76],[68,-55],[166,24],[-27,-37],[-56,-25]],[[0,85105],[150,13],[48,-9],[-75,-60],[-55,-19],[-39,19],[-29,56]],[[56842,88951],[-95,57],[-24,24],[193,-72],[492,-322],[-566,313]],[[55647,91622],[210,59],[-64,-69],[-138,-63],[-8,73]],[[70954,23922],[146,15],[125,-64],[7,-63],[-42,28],[-19,51],[-36,6],[-113,-142],[-4,-27],[37,-168],[-75,-75],[-126,3],[-85,72],[-18,95],[52,149],[48,50],[103,70]]],"transform":{"scale":[0.00008511803868038681,0.00012992317423174234],"translate":[-165.82453365799992,-21.938897393999923]}}