{"type":"Topology","objects":{"subunits":{"type":"GeometryCollection","name":"LVA_subunits","crs":{"type":"name","properties":{"name":"urn:ogc:def:crs:OGC:1.3:CRS84"}},"geometries":[{"type":"Polygon","properties":{"name":"Rujienas","fips":"LGB8","postal":"VM","scalerank":8,"country":"LVA","latitude":57.8851,"longitude":25.2607,"type":"Novads"},"id":"LV-084","arcs":[[0,1,2,3]]},{"type":"Polygon","properties":{"name":"Mazsalacas","fips":"LG96","postal":"VM","scalerank":8,"country":"LVA","latitude":57.9137,"longitude":25.0276,"type":"Novads"},"id":"LV-060","arcs":[[-4,4,5,6]]},{"type":"Polygon","properties":{"name":"Alojas","fips":"LG39","postal":"R","scalerank":8,"country":"LVA","latitude":57.8074,"longitude":24.8231,"type":"Novads"},"id":"LV-005","arcs":[[7,-6,8,9,10,11]]},{"type":"Polygon","properties":{"name":"Nauksenu","fips":"LG97","postal":"VM","scalerank":8,"country":"LVA","latitude":57.926,"longitude":25.4406,"type":"Novads"},"id":"LV-064","arcs":[[12,13,-2,14]]},{"type":"Polygon","properties":{"name":"Salacgrivas","fips":"LGC2","postal":"R","scalerank":8,"country":"LVA","latitude":57.746,"longitude":24.41,"type":"Novads"},"id":"LV-085","arcs":[[-12,15,16]]},{"type":"Polygon","properties":{"name":"Apes","fips":"LG43","postal":"VM","scalerank":8,"country":"LVA","latitude":57.4556,"longitude":26.4999,"type":"Novads"},"id":"LV-009","arcs":[[17,18,19,20,21]]},{"type":"Polygon","properties":{"name":"Valkas","fips":"LGD8","postal":"VG","scalerank":8,"country":"LVA","latitude":57.6587,"longitude":26.0635,"type":"Novads"},"id":"LV-101","arcs":[[22,-21,23,24,25,-13]]},{"type":"Polygon","properties":{"name":"Aluksne","fips":"LG41","postal":"AL","scalerank":8,"country":"LVA","latitude":57.4151,"longitude":27.1693,"type":"Novads"},"id":"LV-007","arcs":[[26,27,28,29,-18]]},{"type":"Polygon","properties":{"name":"Vilakas","fips":"LGE7","postal":"BL","scalerank":8,"country":"LVA","latitude":57.1775,"longitude":27.6287,"type":"Novads"},"id":"LV-108","arcs":[[30,31,32,-28]]},{"type":"Polygon","properties":{"name":"Baltinavas","fips":"LG47","postal":"BL","scalerank":8,"country":"LVA","latitude":56.924,"longitude":27.6041,"type":"Novads"},"id":"LV-014","arcs":[[33,34,35,-32]]},{"type":"Polygon","properties":{"name":"Karsavas","fips":"LG78","postal":"BL","scalerank":8,"country":"LVA","latitude":56.7645,"longitude":27.6287,"type":"Novads"},"id":"LV-044","arcs":[[36,37,38,39,-35]]},{"type":"Polygon","properties":{"name":"Ciblas","fips":"LG56","postal":"BL","scalerank":8,"country":"LVA","latitude":56.6132,"longitude":27.8618,"type":"Novads"},"id":"LV-023","arcs":[[40,41,42,-38]]},{"type":"Polygon","properties":{"name":"Ludzas","fips":"LG92","postal":"LU","scalerank":8,"country":"LVA","latitude":56.4059,"longitude":27.796,"type":"Novads"},"id":"LV-058","arcs":[[43,44,45,46,-42]]},{"type":"Polygon","properties":{"name":"Zilupes","fips":"LGE9","postal":"BL","scalerank":8,"country":"LVA","latitude":56.3391,"longitude":28.1072,"type":"Novads"},"id":"LV-110","arcs":[[47,48,-45]]},{"type":"Polygon","properties":{"name":"Neretas","fips":"LG98","postal":"Z","scalerank":8,"country":"LVA","latitude":56.3246,"longitude":25.1056,"type":"Novads"},"id":"LV-065","arcs":[[49,50,51,52]]},{"type":"Polygon","properties":{"name":"Viesites","fips":"LGE6","postal":"JK","scalerank":8,"country":"LVA","latitude":56.2901,"longitude":25.5306,"type":"Novads"},"id":"LV-107","arcs":[[53,-53,54,55,56,57]]},{"type":"Polygon","properties":{"name":"Vecumnieku","fips":"LGE4","postal":"JK","scalerank":8,"country":"LVA","latitude":56.4823,"longitude":24.6268,"type":"Novads"},"id":"LV-105","arcs":[[58,59,60,61,62,63,-51]]},{"type":"Polygon","properties":{"name":"Saldus","fips":"LGC4","postal":"SA","scalerank":8,"country":"LVA","latitude":56.6408,"longitude":22.4024,"type":"Novads"},"id":"LV-088","arcs":[[64,65,66,67,68,69,70]]},{"type":"Polygon","properties":{"name":"Rucavas","fips":"LGB6","postal":"K","scalerank":8,"country":"LVA","latitude":56.2259,"longitude":21.2115,"type":"Novads"},"id":"LV-081","arcs":[[71,72,73,74]]},{"type":"Polygon","properties":{"name":"Priekules","fips":"LGA8","postal":"K","scalerank":8,"country":"LVA","latitude":56.4189,"longitude":21.555,"type":"Novads"},"id":"LV-074","arcs":[[75,-75,76,77,78,79]]},{"type":"Polygon","properties":{"name":"Vainodes","fips":"LGD7","postal":"K","scalerank":8,"country":"LVA","latitude":56.432,"longitude":21.8331,"type":"Novads"},"id":"LV-100","arcs":[[-80,80,81,-65,82]]},{"type":"Polygon","properties":{"name":"Auces","fips":"LG44","postal":"JK","scalerank":8,"country":"LVA","latitude":56.4782,"longitude":22.9664,"type":"Novads"},"id":"LV-010","arcs":[[83,-70,84,85,86]]},{"type":"Polygon","properties":{"name":"Bauska","fips":"LG49","postal":"BU","scalerank":8,"country":"LVA","latitude":56.4223,"longitude":24.269,"type":"Novads"},"id":"LV-016","arcs":[[87,88,89,90,-60]]},{"type":"Polygon","properties":{"name":"Tervetes","fips":"LGD5","postal":"JK","scalerank":8,"country":"LVA","latitude":56.425,"longitude":23.314,"type":"Novads"},"id":"LV-098","arcs":[[91,-87,92,93]]},{"type":"Polygon","properties":{"name":"Jelgava","fips":"LG76","postal":"JG","scalerank":8,"country":"LVA","latitude":56.4939,"longitude":23.6461,"type":"Novads"},"id":"LV-JEL","arcs":[[-94,94,95,96,97,98,99,100]]},{"type":"Polygon","properties":{"name":"Rundales","fips":"LGB9","postal":"JK","scalerank":8,"country":"LVA","latitude":56.4087,"longitude":23.9643,"type":"Novads"},"id":"LV-083","arcs":[[101,-100,102,-89]]},{"type":"Polygon","properties":{"name":"Aknistes","fips":"LG38","postal":"JK","scalerank":8,"country":"LVA","latitude":56.1592,"longitude":25.7883,"type":"Novads"},"id":"LV-004","arcs":[[103,-58,104,105]]},{"type":"Polygon","properties":{"name":"Ilukstes","fips":"LG69","postal":"BL","scalerank":8,"country":"LVA","latitude":55.9997,"longitude":26.1768,"type":"Novads"},"id":"LV-036","arcs":[[-106,106,107,108]]},{"type":"Polygon","properties":{"name":"Daugavpils","fips":"LG58","postal":"DG","scalerank":8,"country":"LVA","latitude":56.043,"longitude":26.589,"type":"Novads"},"id":"LV-DGV","arcs":[[-108,109,110,111,112,113,114,115]]},{"type":"Polygon","properties":{"name":"Dagdas","fips":"LG57","postal":"BL","scalerank":8,"country":"LVA","latitude":56.1183,"longitude":27.6246,"type":"Novads"},"id":"LV-024","arcs":[[116,117,118,119,-46,-49]]},{"type":"Polygon","properties":{"name":"Kraslavas","fips":"LG83","postal":"KR","scalerank":8,"country":"LVA","latitude":55.9319,"longitude":27.3415,"type":"Novads"},"id":"LV-047","arcs":[[120,-115,121,-118]]},{"type":"Polygon","properties":{"name":"Nicas","fips":"LG99","postal":"K","scalerank":8,"country":"LVA","latitude":56.3535,"longitude":21.0871,"type":"Novads"},"id":"LV-066","arcs":[[122,123,124,125,-73]]},{"type":"MultiPolygon","properties":{"name":"Liepāja","fips":"LG16","postal":"LJ","scalerank":8,"country":"LVA","latitude":56.5616,"longitude":21.0399,"type":"Republikas Pilsētas"},"id":"LV-LPX","arcs":[[[126,-124]],[[127,128]]]},{"type":"Polygon","properties":{"name":"Grobinas","fips":"LG65","postal":"K","scalerank":8,"country":"LVA","latitude":56.4778,"longitude":21.2507,"type":"Novads"},"id":"LV-032","arcs":[[129,-129,130,131,132,-77,-74,-126]]},{"type":"Polygon","properties":{"name":"Pavilostas","fips":"LGA5","postal":"K","scalerank":8,"country":"LVA","latitude":56.8115,"longitude":21.2474,"type":"Novads"},"id":"LV-071","arcs":[[133,134,135,136,137,138,-132]]},{"type":"Polygon","properties":{"name":"Ventspils","fips":"LGE5","postal":"VN","scalerank":8,"country":"LVA","latitude":57.3367,"longitude":21.8185,"type":"Novads"},"id":"LV-VEN","arcs":[[139,140,141,142,-135,143]]},{"type":"Polygon","properties":{"name":"Dundagas","fips":"LG60","postal":"TA","scalerank":8,"country":"LVA","latitude":57.5837,"longitude":22.4057,"type":"Novads"},"id":"LV-027","arcs":[[144,145,146,-140]]},{"type":"Polygon","properties":{"name":"Rojas","fips":"LGB4","postal":"TA","scalerank":8,"country":"LVA","latitude":57.4888,"longitude":22.7688,"type":"Novads"},"id":"LV-079","arcs":[[147,148,-146]]},{"type":"Polygon","properties":{"name":"Talsi","fips":"LGD4","postal":"TA","scalerank":8,"country":"LVA","latitude":57.317,"longitude":22.6192,"type":"Novads"},"id":"LV-097","arcs":[[149,150,151,152,153,-141,-147,-149]]},{"type":"Polygon","properties":{"name":"Mersraga","fips":"LGF1","postal":"TA","scalerank":8,"country":"LVA","latitude":57.3317,"longitude":23.0567,"type":"Novads"},"id":"LV-063","arcs":[[154,155,156,-151]]},{"type":"Polygon","properties":{"name":"Engures","fips":"LG62","postal":"R","scalerank":8,"country":"LVA","latitude":57.0017,"longitude":23.3222,"type":"Novads"},"id":"LV-029","arcs":[[157,158,159,-156]]},{"type":"Polygon","properties":{"name":"Jurmala","fips":"LG13","postal":"R","scalerank":8,"country":"LVA","latitude":56.9608,"longitude":23.7352,"type":"Republikas Pilsētas"},"id":"LV-JUR","arcs":[[160,161,162,163,-159]]},{"type":"Polygon","properties":{"name":"Riga","fips":"LG25","postal":"R","scalerank":8,"country":"LVA","latitude":56.9878,"longitude":24.1235,"type":"Republikas Pilsētas"},"id":"LV-RIX","arcs":[[164,165,166,167,168,169,170,171,172,-162]]},{"type":"Polygon","properties":{"name":"Carnikavas","fips":"LG53","postal":"R","scalerank":8,"country":"LVA","latitude":57.1203,"longitude":24.2464,"type":"Novads"},"id":"LV-020","arcs":[[173,174,175,176,-166]]},{"type":"Polygon","properties":{"name":"Saulkrastu","fips":"LGC5","postal":"R","scalerank":8,"country":"LVA","latitude":57.2552,"longitude":24.4305,"type":"Novads"},"id":"LV-089","arcs":[[177,178,179,180,-175]]},{"type":"Polygon","properties":{"name":"Limbaži","fips":"LG89","postal":"LM","scalerank":8,"country":"LVA","latitude":57.5879,"longitude":24.6925,"type":"Novads"},"id":"LV-054","arcs":[[181,-16,-11,182,183,184,185,-179]]},{"type":"Polygon","properties":{"name":"Smiltenes","fips":"LGD1","postal":"VM","scalerank":8,"country":"LVA","latitude":57.4025,"longitude":26.0091,"type":"Novads"},"id":"LV-094","arcs":[[-20,186,187,188,189,190,191,-24]]},{"type":"Polygon","properties":{"name":"Balvu","fips":"LG48","postal":"BL","scalerank":8,"country":"LVA","latitude":57.0151,"longitude":27.4348,"type":"Novads"},"id":"LV-015","arcs":[[-29,-33,-36,-40,192,193,194,195,196]]},{"type":"Polygon","properties":{"name":"Strencu","fips":"LGD3","postal":"VM","scalerank":8,"country":"LVA","latitude":57.6356,"longitude":25.7924,"type":"Novads"},"id":"LV-096","arcs":[[197,-25,-192,198]]},{"type":"Polygon","properties":{"name":"Beverinas","fips":"LG50","postal":"VM","scalerank":8,"country":"LVA","latitude":57.5293,"longitude":25.592,"type":"Novads"},"id":"LV-017","arcs":[[-199,-191,199,200,201,202]]},{"type":"Polygon","properties":{"name":"Burtnieku","fips":"LG52","postal":"VM","scalerank":8,"country":"LVA","latitude":57.6809,"longitude":25.3393,"type":"Novads"},"id":"LV-019","arcs":[[-26,-198,-203,203,204,-9,-5,-3,-14]]},{"type":"Polygon","properties":{"name":"Kocenu","fips":"LG81","postal":"VM","scalerank":8,"country":"LVA","latitude":57.5415,"longitude":25.2116,"type":"Novads"},"id":"LV-045","arcs":[[-183,-10,-205,205,-201,206,207]]},{"type":"Polygon","properties":{"name":"Rezeknes","fips":"LG23","postal":"L","scalerank":8,"country":"LVA","latitude":56.3554,"longitude":27.2633,"type":"Novads"},"id":"LV-REZ","arcs":[[-39,-43,-47,-120,208,209,210,211,-193]]},{"type":"Polygon","properties":{"name":"Vecpiebalgas","fips":"LGE3","postal":"VM","scalerank":8,"country":"LVA","latitude":57.108,"longitude":25.7024,"type":"Novads"},"id":"LV-104","arcs":[[-189,212,213,214,215,216,217,218,219]]},{"type":"MultiPolygon","properties":{"name":"Raunas","fips":"LGB1","postal":"VM","scalerank":8,"country":"LVA","latitude":57.3411,"longitude":25.641,"type":"Novads"},"id":"LV-076","arcs":[[[-190,-220,220]],[[-188,221,222,-213]]]},{"type":"Polygon","properties":{"name":"Priekulu","fips":"LGA9","postal":"VM","scalerank":8,"country":"LVA","latitude":57.3657,"longitude":25.4447,"type":"Novads"},"id":"LV-075","arcs":[[-200,-221,-219,223,224,-207]]},{"type":"Polygon","properties":{"name":"Pargaujas","fips":"LGA4","postal":"VM","scalerank":8,"country":"LVA","latitude":57.3575,"longitude":25.0767,"type":"Novads"},"id":"LV-070","arcs":[[-208,-225,225,226,227,228,-184]]},{"type":"Polygon","properties":{"name":"Krimuldas","fips":"LG84","postal":"R","scalerank":8,"country":"LVA","latitude":57.2798,"longitude":24.7863,"type":"Novads"},"id":"LV-048","arcs":[[-229,229,230,231,232,-185]]},{"type":"Polygon","properties":{"name":"Gulbene","fips":"LG66","postal":"GU","scalerank":8,"country":"LVA","latitude":57.1723,"longitude":26.5803,"type":"Novads"},"id":"LV-033","arcs":[[-187,-19,-30,-197,233,234,235,236,237,238,-222]]},{"type":"Polygon","properties":{"name":"Rugaju","fips":"LGB7","postal":"BL","scalerank":8,"country":"LVA","latitude":56.9853,"longitude":27.1093,"type":"Novads"},"id":"LV-082","arcs":[[-234,-196,239]]},{"type":"Polygon","properties":{"name":"Jaunpiebalgas","fips":"LG72","postal":"VM","scalerank":8,"country":"LVA","latitude":57.1448,"longitude":26.0091,"type":"Novads"},"id":"LV-039","arcs":[[-239,240,-214,-223]]},{"type":"Polygon","properties":{"name":"Aglonas","fips":"LG35","postal":"BL","scalerank":8,"country":"LVA","latitude":56.0979,"longitude":27.0929,"type":"Novads"},"id":"LV-001","arcs":[[-209,-119,-122,-114,241]]},{"type":"Polygon","properties":{"name":"Riebinu","fips":"LGB3","postal":"BL","scalerank":8,"country":"LVA","latitude":56.3637,"longitude":26.8189,"type":"Novads"},"id":"LV-078","arcs":[[-210,-242,242,243,244,245,246]]},{"type":"Polygon","properties":{"name":"Vilanu","fips":"LGE8","postal":"BL","scalerank":8,"country":"LVA","latitude":56.5518,"longitude":26.8884,"type":"Novads"},"id":"LV-109","arcs":[[-247,247,-211]]},{"type":"Polygon","properties":{"name":"Babites","fips":"LG45","postal":"R","scalerank":8,"country":"LVA","latitude":56.8913,"longitude":23.7639,"type":"Novads"},"id":"LV-012","arcs":[[-173,248,249,-97,250,-163]]},{"type":"Polygon","properties":{"name":"Garkalnes","fips":"LG64","postal":"R","scalerank":8,"country":"LVA","latitude":57.0221,"longitude":24.3875,"type":"Novads"},"id":"LV-031","arcs":[[-167,-177,251,252,253,254]]},{"type":"Polygon","properties":{"name":"Kekavas","fips":"LG80","postal":"R","scalerank":8,"country":"LVA","latitude":56.8054,"longitude":24.2628,"type":"Novads"},"id":"LV-052","arcs":[[-170,255,256,257,258,259,260,261]]},{"type":"Polygon","properties":{"name":"Marupes","fips":"LG95","postal":"R","scalerank":8,"country":"LVA","latitude":56.8913,"longitude":23.9438,"type":"Novads"},"id":"LV-062","arcs":[[-172,262,-249]]},{"type":"MultiPolygon","properties":{"name":"Olaines","fips":"LGA2","postal":"R","scalerank":8,"country":"LVA","latitude":56.789,"longitude":23.9561,"type":"Novads"},"id":"LV-068","arcs":[[[-171,-262,263,-98,-250,-263]],[[264,265,-260,266]]]},{"type":"Polygon","properties":{"name":"Salaspils","fips":"LGC3","postal":"R","scalerank":8,"country":"LVA","latitude":56.8708,"longitude":24.365,"type":"Novads"},"id":"LV-087","arcs":[[-169,267,268,269,-256]]},{"type":"Polygon","properties":{"name":"Stopinu","fips":"LGD2","postal":"R","scalerank":8,"country":"LVA","latitude":56.9362,"longitude":24.3323,"type":"Novads"},"id":"LV-095","arcs":[[-168,-255,270,-268]]},{"type":"Polygon","properties":{"name":"Sejas","fips":"LGC6","postal":"R","scalerank":8,"country":"LVA","latitude":57.198,"longitude":24.5327,"type":"Novads"},"id":"LV-090","arcs":[[-186,-233,271,272,-180]]},{"type":"Polygon","properties":{"name":"Malpils","fips":"LG94","postal":"R","scalerank":8,"country":"LVA","latitude":57.0017,"longitude":24.9581,"type":"Novads"},"id":"LV-061","arcs":[[273,274,275,276]]},{"type":"Polygon","properties":{"name":"Siguldas","fips":"LGC7","postal":"R","scalerank":8,"country":"LVA","latitude":57.0998,"longitude":24.8272,"type":"Novads"},"id":"LV-091","arcs":[[-277,277,278,-231,279,280]]},{"type":"Polygon","properties":{"name":"Madona","fips":"LG93","postal":"MA","scalerank":8,"country":"LVA","latitude":56.805,"longitude":26.2344,"type":"Novads"},"id":"LV-059","arcs":[[-194,-212,281,282,283,284,-215,-241,-238,285,-236,286]]},{"type":"Polygon","properties":{"name":"Lubanas","fips":"LG91","postal":"VM","scalerank":8,"country":"LVA","latitude":56.9362,"longitude":26.7126,"type":"Novads"},"id":"LV-057","arcs":[[-195,-287,-235,-240]]},{"type":"Polygon","properties":{"name":"Varaklanu","fips":"LGE1","postal":"VM","scalerank":8,"country":"LVA","latitude":56.6336,"longitude":26.643,"type":"Novads"},"id":"LV-102","arcs":[[-248,-246,287,-282]]},{"type":"Polygon","properties":{"name":"Amatas","fips":"LG42","postal":"VM","scalerank":8,"country":"LVA","latitude":57.0794,"longitude":25.3384,"type":"Novads"},"id":"LV-008","arcs":[[288,-274,-281,289,-227,290,-217,291]]},{"type":"Polygon","properties":{"name":"Erglu","fips":"LG63","postal":"VM","scalerank":8,"country":"LVA","latitude":56.8954,"longitude":25.6656,"type":"Novads"},"id":"LV-030","arcs":[[-292,-216,-285,292,293,294]]},{"type":"Polygon","properties":{"name":"Cesvaines","fips":"LG55","postal":"VM","scalerank":8,"country":"LVA","latitude":57.0099,"longitude":26.275,"type":"Novads"},"id":"LV-021","arcs":[[-237,-286]]},{"type":"Polygon","properties":{"name":"Ogre","fips":"LGA1","postal":"OG","scalerank":8,"country":"LVA","latitude":56.8577,"longitude":25.1269,"type":"Novads"},"id":"LV-067","arcs":[[-289,-295,295,296,297,298,299,300,301,-275]]},{"type":"Polygon","properties":{"name":"Ropazu","fips":"LGB5","postal":"R","scalerank":8,"country":"LVA","latitude":56.9649,"longitude":24.5818,"type":"Novads"},"id":"LV-080","arcs":[[-302,302,-269,-271,-254,303,-278,-276]]},{"type":"Polygon","properties":{"name":"Ikskiles","fips":"LG68","postal":"R","scalerank":8,"country":"LVA","latitude":56.8545,"longitude":24.5695,"type":"Novads"},"id":"LV-035","arcs":[[-257,-270,-303,-301,304]]},{"type":"Polygon","properties":{"name":"Baldones","fips":"LG46","postal":"R","scalerank":8,"country":"LVA","latitude":56.7316,"longitude":24.3555,"type":"Novads"},"id":"LV-013","arcs":[[305,-62,306,-267,-259]]},{"type":"Polygon","properties":{"name":"Keguma","fips":"LG79","postal":"R","scalerank":8,"country":"LVA","latitude":56.6541,"longitude":24.729,"type":"Novads"},"id":"LV-051","arcs":[[-306,-258,-305,-300,307,308,309,-63]]},{"type":"Polygon","properties":{"name":"Iecavas","fips":"LG67","postal":"JK","scalerank":8,"country":"LVA","latitude":56.6132,"longitude":24.2055,"type":"Novads"},"id":"LV-034","arcs":[[-307,-61,-91,310,-265]]},{"type":"Polygon","properties":{"name":"Plavinu","fips":"LGA6","postal":"JK","scalerank":8,"country":"LVA","latitude":56.6868,"longitude":25.731,"type":"Novads"},"id":"LV-072","arcs":[[-284,311,312,313,314,-293]]},{"type":"Polygon","properties":{"name":"Kokneses","fips":"LG82","postal":"JK","scalerank":8,"country":"LVA","latitude":56.7031,"longitude":25.4447,"type":"Novads"},"id":"LV-046","arcs":[[-294,-315,315,316,-296]]},{"type":"Polygon","properties":{"name":"Aizkraukles","fips":"LG36","postal":"JK","scalerank":8,"country":"LVA","latitude":56.6459,"longitude":25.228,"type":"Novads"},"id":"LV-002","arcs":[[-297,-317,317,318]]},{"type":"Polygon","properties":{"name":"Skriveru","fips":"LGC8","postal":"JK","scalerank":8,"country":"LVA","latitude":56.6786,"longitude":25.0971,"type":"Novads"},"id":"LV-092","arcs":[[-298,-319,319,-309,320]]},{"type":"Polygon","properties":{"name":"Lielvardes","fips":"LG87","postal":"R","scalerank":8,"country":"LVA","latitude":56.7332,"longitude":24.9523,"type":"Novads"},"id":"LV-053","arcs":[[-321,-308,-299]]},{"type":"Polygon","properties":{"name":"Jaunjelgavas","fips":"LG71","postal":"JK","scalerank":8,"country":"LVA","latitude":56.5109,"longitude":25.3016,"type":"Novads"},"id":"LV-038","arcs":[[-310,-320,-318,-316,-314,321,-55,-52,-64]]},{"type":"Polygon","properties":{"name":"Preilu","fips":"LGA7","postal":"PR","scalerank":8,"country":"LVA","latitude":56.2674,"longitude":26.696,"type":"Novads"},"id":"LV-073","arcs":[[-113,322,323,-243]]},{"type":"Polygon","properties":{"name":"Livanu","fips":"LG90","postal":"BL","scalerank":8,"country":"LVA","latitude":56.3841,"longitude":26.324,"type":"Novads"},"id":"LV-056","arcs":[[-111,324,325,-244,-324,326]]},{"type":"Polygon","properties":{"name":"Varkavas","fips":"LGE2","postal":"BL","scalerank":8,"country":"LVA","latitude":56.2165,"longitude":26.5122,"type":"Novads"},"id":"LV-103","arcs":[[-112,-327,-323]]},{"type":"Polygon","properties":{"name":"Jekabpils","fips":"LG75","postal":"JK","scalerank":8,"country":"LVA","latitude":56.3227,"longitude":25.9607,"type":"Novads"},"id":"LV-JKB","arcs":[[-110,-107,-105,-57,327,328,-325]]},{"type":"Polygon","properties":{"name":"Krustpils","fips":"LG85","postal":"JK","scalerank":8,"country":"LVA","latitude":56.5559,"longitude":26.1972,"type":"Novads"},"id":"LV-049","arcs":[[-326,-329,329,-312,-283,-288,-245]]},{"type":"Polygon","properties":{"name":"Salas","fips":"LGC1","postal":"JK","scalerank":8,"country":"LVA","latitude":56.4905,"longitude":25.7187,"type":"Novads"},"id":"LV-086","arcs":[[-313,-330,-328,-56,-322]]},{"type":"Polygon","properties":{"name":"Aizputes","fips":"LG37","postal":"K","scalerank":8,"country":"LVA","latitude":56.7232,"longitude":21.5943,"type":"Novads"},"id":"LV-003","arcs":[[330,331,-81,-79,332,-138]]},{"type":"Polygon","properties":{"name":"Kuldigas","fips":"LG86","postal":"K","scalerank":8,"country":"LVA","latitude":56.9626,"longitude":21.9858,"type":"Novads"},"id":"LV-050","arcs":[[-331,-137,333,-142,-154,334,-67,335]]},{"type":"Polygon","properties":{"name":"Alsungas","fips":"LG40","postal":"K","scalerank":8,"country":"LVA","latitude":56.9915,"longitude":21.5583,"type":"Novads"},"id":"LV-006","arcs":[[-136,-143,-334]]},{"type":"Polygon","properties":{"name":"Skrundas","fips":"LGC9","postal":"K","scalerank":8,"country":"LVA","latitude":56.6446,"longitude":21.9901,"type":"Novads"},"id":"LV-093","arcs":[[-82,-332,-336,-66]]},{"type":"Polygon","properties":{"name":"Kandavas","fips":"LG77","postal":"R","scalerank":8,"country":"LVA","latitude":56.9403,"longitude":22.6964,"type":"Novads"},"id":"LV-043","arcs":[[-335,-153,336,337,338,-68]]},{"type":"Polygon","properties":{"name":"Tukums","fips":"LGD6","postal":"TU","scalerank":8,"country":"LVA","latitude":56.9505,"longitude":23.0121,"type":"Novads"},"id":"LV-099","arcs":[[-251,-96,339,340,-337,-152,-157,-160,-164]]},{"type":"Polygon","properties":{"name":"Dobele","fips":"LG59","postal":"DO","scalerank":8,"country":"LVA","latitude":56.6172,"longitude":23.2005,"type":"Novads"},"id":"LV-026","arcs":[[-340,-95,-93,-86,341,342]]},{"type":"Polygon","properties":{"name":"Jaunpils","fips":"LG73","postal":"R","scalerank":8,"country":"LVA","latitude":56.7686,"longitude":22.9132,"type":"Novads"},"id":"LV-040","arcs":[[-343,343,-338,-341]]},{"type":"Polygon","properties":{"name":"Brocenu","fips":"LG51","postal":"K","scalerank":8,"country":"LVA","latitude":56.7003,"longitude":22.6412,"type":"Novads"},"id":"LV-018","arcs":[[-344,-342,-85,-69,-339]]},{"type":"Polygon","properties":{"name":"Ozolnieku","fips":"LGA3","postal":"JK","scalerank":8,"country":"LVA","latitude":56.6377,"longitude":23.9479,"type":"Novads"},"id":"LV-069","arcs":[[-261,-266,-311,-90,-103,-99,-264]]},{"type":"Polygon","properties":{"name":"Durbes","fips":"LG61","postal":"LP","scalerank":8,"country":"LVA","latitude":56.6142,"longitude":21.4069,"type":"Novads"},"id":"LV-028","arcs":[[-139,-333,-78,-133]]},{"type":"Polygon","properties":{"name":"Incukalna","fips":"LG70","postal":"R","scalerank":8,"country":"LVA","latitude":57.0998,"longitude":24.635,"type":"Novads"},"id":"LV-037","arcs":[[-304,-253,-272,-232,-279]]},{"type":"Polygon","properties":{"name":"Ādaži","fips":"LG34","postal":"R","scalerank":8,"country":"LVA","latitude":57.108,"longitude":24.3855,"type":"Novads"},"id":"LV-011","arcs":[[-181,-273,-252,-176]]},{"type":"Polygon","properties":{"name":"Valmiera","fips":"LGD9","postal":"VM","scalerank":8,"country":"LVA","latitude":57.5374,"longitude":25.4161,"type":"Republikas Pilsētas"},"id":"LV-VMR","arcs":[[-202,-206,-204]]},{"type":"Polygon","properties":{"name":"Cesu","fips":"LG54","postal":"CE","scalerank":8,"country":"LVA","latitude":57.2396,"longitude":25.4307,"type":"Novads"},"id":"LV-022","arcs":[[-226,-224,-218,-291]]},{"type":"Polygon","properties":{"name":"Ligatnes","fips":"LG88","postal":"VM","scalerank":8,"country":"LVA","latitude":57.1775,"longitude":25.0726,"type":"Novads"},"id":"LV-055","arcs":[[-228,-290,-280,-230]]}]},"places":{"type":"GeometryCollection","name":"LVA_places","crs":{"type":"name","properties":{"name":"urn:ogc:def:crs:OGC:1.3:CRS84"}},"geometries":[{"type":"Point","properties":{"name":"Rēzekne","scalerank":8,"subregion":"Latgale","latitude":56.500026,"longitude":27.316565},"id":"Q180379","coordinates":[87573,34592]},{"type":"Point","properties":{"name":"Ventspils","scalerank":7,"subregion":"Ventspils","latitude":57.389868,"longitude":21.560586},"id":"Q104036","coordinates":[8167,71543]},{"type":"Point","properties":{"name":"Jelgava","scalerank":7,"subregion":"Jelgava","latitude":56.652704,"longitude":23.712806},"id":"Q179830","coordinates":[37858,40932]},{"type":"Point","properties":{"name":"Liepaga","scalerank":6,"subregion":"Liepaja","latitude":56.509973,"longitude":21.010025},"id":"Q167668","coordinates":[572,35005]},{"type":"Point","properties":{"name":"Daugavpils","scalerank":6,"subregion":"Daugavpils","latitude":55.87996,"longitude":26.509999},"id":"Q80021","coordinates":[76446,8844]},{"type":"Point","properties":{"name":"Riga","scalerank":3,"subregion":"Riga","latitude":56.950024,"longitude":24.099965},"id":"Q1773","coordinates":[43199,53278]}]}},"arcs":[[[56915,99674],[1004,-356],[484,-2773],[1135,672],[-480,1787],[192,995],[968,-1799],[1188,-979]],[[61406,97221],[-222,-1548],[-799,-195],[-259,1040],[-907,-2210],[129,-1041],[1534,-1235],[497,-2796],[518,-1105]],[[61897,88131],[-2549,-455],[-345,910]],[[59003,88586],[21,2146],[-712,2210],[-843,1040],[-21,1951],[-519,1105],[-14,2636]],[[59003,88586],[-1426,1821],[-129,-1496],[-1361,260],[-231,-744]],[[55856,88427],[-1679,1442],[-148,2404],[-589,492],[-206,3361]],[[53234,96126],[1682,1020],[1999,2528]],[[49855,94637],[1412,65],[672,1853],[1295,-429]],[[55856,88427],[825,-1216],[296,-1294],[-317,-1249],[248,-2193]],[[56908,82475],[-124,-970],[-1286,279],[-786,-1015],[-732,524]],[[53980,81293],[153,1155],[-844,578],[-39,2194],[-1112,520],[-1362,1617]],[[50776,87357],[-710,4158],[-211,3122]],[[65324,93612],[-520,-289],[-175,-2106],[-974,809],[-1607,-969],[1295,-2168],[-100,-631]],[[63243,88258],[-1346,-127]],[[61406,97221],[1548,-1736],[959,-2252],[1411,379]],[[50776,87357],[-691,-751],[134,-1559],[-633,115],[19,-1847],[-2014,-116],[211,-4273],[786,-982],[864,-116],[-326,-808],[671,-2368],[-921,-693],[-345,-1328],[-1264,-667]],[[47267,71964],[-272,5338],[-229,905],[224,2621],[-236,2991],[-802,2423],[-148,4212],[239,951],[1316,-71],[381,1407],[1444,1857],[671,39]],[[80389,79078],[172,-2807],[-1194,-568],[-252,-2744],[-1225,-189],[-282,-1167]],[[77608,71603],[-1633,571],[-15,-1246],[-1072,-863],[365,-918],[-884,-400],[-1149,352]],[[73220,69099],[20,1400],[592,2452],[-372,786],[248,2352]],[[73708,76089],[694,560],[-145,2798]],[[74257,79447],[1098,-768],[947,-1906],[1108,84],[344,933],[1320,1264],[1315,24]],[[65324,93612],[366,75],[860,-2789],[2898,-415],[304,-2974],[1983,-2920],[1306,-3455],[1216,-1687]],[[73708,76089],[-137,1178],[-2021,811],[-438,912],[-2021,-811],[-438,-811]],[[68653,77368],[-674,0],[68,2434],[-337,608],[1145,710],[405,2129],[-1786,507],[-438,913],[270,1926],[-1550,-912],[-641,303]],[[65115,85986],[-1872,2272]],[[80389,79078],[1060,2319],[1821,-1173],[785,-1796],[1436,-373],[2129,-1269],[455,476],[2417,37],[-232,-4073],[1787,-1719],[739,-1355]],[[92786,70152],[-305,-1501],[-995,-931],[-616,-1615],[-944,621]],[[89926,66726],[-1115,-448],[-709,901],[-1090,-1582],[-1646,-843]],[[85366,64754],[-1526,994],[289,763],[-1081,1483],[-1704,-203],[-216,654],[-1223,266],[-634,-631],[-1125,1820],[-538,1703]],[[92786,70152],[1583,-1762],[429,-968],[13,-3298],[-233,-2165],[-1702,-1673],[-67,-1384],[681,-725],[4,-1517]],[[93494,56660],[-1492,-542]],[[92002,56118],[-94,852],[-1069,0],[-157,1608],[-1194,1514],[-723,1892],[597,3501],[564,1241]],[[93494,56660],[-422,-3075],[-916,-3245],[-60,-1557]],[[92096,48783],[-1142,1203],[-1585,-751]],[[89369,49235],[-415,2058],[1665,1325],[-251,851],[2012,1419],[-378,1230]],[[92096,48783],[1959,1225],[613,-290],[1215,-2425],[-737,-2624]],[[95146,44669],[-621,-618],[-250,-2580],[-571,1075],[-1607,-215],[-714,-1290],[-173,-1490]],[[91210,39551],[-1271,1406],[-449,4922],[-1595,450]],[[87895,46329],[113,1348],[1361,1558]],[[95146,44669],[1594,-2313],[226,-3453],[431,-1125],[1429,-1693],[-538,-1428]],[[98288,34657],[-1441,902],[-964,-1720],[-1465,2902],[-785,-1289],[-893,1934],[-1793,358]],[[90947,37744],[263,1807]],[[98288,34657],[1029,-3092]],[[99317,31565],[-1363,-198],[-1250,430],[464,-2043],[-785,-215],[-1572,-2365],[322,-1505],[714,0],[214,968],[1000,967],[1250,-1397],[357,-968],[-695,-2752]],[[97973,22487],[-538,247],[-1633,-1277],[-1250,81],[-1379,871],[-757,1395]],[[92416,23804],[661,2419],[-353,2580],[-931,1323],[-1000,3575],[-569,-764],[-298,1633],[884,1479],[137,1695]],[[99317,31565],[91,-3218],[557,-2835],[-630,-4967],[-1628,-876]],[[97707,19669],[266,2818]],[[60431,20467],[-3309,964],[-498,611],[-647,2591],[-884,2453],[-718,4264],[-540,857]],[[53835,32207],[684,1833],[1283,371]],[[55802,34411],[517,-1336],[321,-2524],[814,445],[2211,-230]],[[59665,30766],[163,-3207],[895,-139],[-825,-1659],[1283,-2317],[4,-2329],[-754,-648]],[[64578,19800],[-1751,530],[-938,-287],[-1458,424]],[[59665,30766],[37,537],[2198,-310],[1919,2234]],[[63819,33227],[232,-1495],[890,-2681],[799,-647]],[[65740,28404],[0,-2126],[-737,-277],[184,-2681]],[[65187,23320],[-609,-3520]],[[53835,32207],[-459,-1605],[-443,191],[-1751,-1298],[-1461,-2802]],[[49721,26693],[-1269,-3],[-173,891],[518,1262],[-814,817],[1159,1188],[-246,1856],[-543,1187],[-493,-371],[-790,2302]],[[47070,35822],[99,965],[-912,445],[-173,2005],[814,297],[-176,1766]],[[46722,41300],[2297,2163]],[[49019,43463],[1090,-275],[458,-1253],[-612,-657],[137,-1676],[1346,-1845],[-554,-1357],[1041,28],[3000,1426]],[[54925,37854],[630,-1141],[247,-2302]],[[13997,29955],[-519,1177],[582,657],[-458,1583],[167,1494]],[[13769,34866],[1233,101],[-616,1910],[1582,1128],[-311,3764],[724,1140],[458,1721],[-366,2212]],[[16473,46842],[2464,2178],[-289,1367],[-698,318],[477,1315],[613,-967],[952,-294],[512,1152]],[[20504,51911],[989,-172],[-493,-2551]],[[21000,49188],[-670,-3338],[630,-1994],[190,-3513],[1009,-2943],[410,1329],[694,190],[789,-1613]],[[24052,37306],[-147,-2993],[551,-742],[-204,-2114],[1835,-1140]],[[26087,30317],[-2458,-1942],[-1058,1195],[-1283,701],[-4095,-232],[-1666,1122],[-1530,-1206]],[[7131,24865],[-913,-1179],[-1265,-541],[-1352,-2540],[-542,-3270],[-1889,-491],[-339,3105],[-618,2618],[-179,2044]],[[34,24611],[875,279],[294,-4072],[382,-89],[30,2568],[323,-354],[971,2833],[0,2833],[647,-177]],[[3556,28432],[500,-1063],[1617,89]],[[5673,27458],[1000,-1062],[458,-1531]],[[10594,27271],[-1938,-658],[-1525,-1748]],[[5673,27458],[500,1062],[295,2214],[-1148,3984]],[[5320,34718],[736,708],[-118,1593],[1147,-1947],[647,88],[-411,1594],[1000,354]],[[8321,37108],[1941,-443]],[[10262,36665],[-59,-1859],[353,-1328],[-735,-354],[-206,-1948],[794,-1505],[185,-2400]],[[10262,36665],[1144,972]],[[11406,37637],[520,-2051],[1843,-720]],[[13997,29955],[-3403,-2684]],[[30405,28693],[-826,-1955],[-695,-279],[-629,817],[-824,3245],[-1344,-204]],[[24052,37306],[1187,122]],[[25239,37428],[497,-1161],[1751,2524],[271,-965],[568,520],[912,-1856],[25,-2747],[814,-1930]],[[30077,31813],[-419,-965],[747,-2155]],[[49721,26693],[-1732,-2047],[-1330,1289],[-871,165],[-1667,-1462],[-803,16],[-1756,2147]],[[41562,26801],[748,780],[444,2153],[814,-594],[395,742],[-1628,1634],[-271,3159]],[[42064,34675],[844,1389]],[[42908,36064],[2140,-1430],[913,1410],[1109,-222]],[[33239,28554],[-1236,765],[-1598,-626]],[[30077,31813],[321,742],[1899,371],[-494,1262],[1135,2302],[370,0],[443,-2177]],[[33751,34313],[-28,-1406],[676,-2172],[-1160,-2181]],[[33751,34313],[600,2139],[-301,1339],[599,933],[-1025,287],[1096,2236],[-98,1018],[-839,914],[1487,2361],[-533,2169]],[[34737,47709],[-340,2837],[618,431]],[[35015,50977],[1648,-223],[1118,-1540],[861,-2164]],[[38642,47050],[-184,-2321]],[[38458,44729],[-1179,-1186],[1693,-1415],[-23,-1438],[1659,-1602],[1106,-4391]],[[41714,34697],[-1619,-1648],[-473,-1191],[-62,-1924],[520,67],[-38,-2383]],[[40042,27618],[-2016,-136],[-253,1065],[-1336,-26],[-1273,-1045],[-1925,1078]],[[41562,26801],[-1520,817]],[[41714,34697],[350,-22]],[[66589,15495],[-1196,1699],[-815,2606]],[[65187,23320],[1474,277],[1044,-555],[400,-2126],[982,-924],[123,-1572],[553,-1294]],[[69763,17126],[-1156,-735],[-1524,2539],[393,-1703],[-887,-1732]],[[69763,17126],[460,-485],[1105,2631],[922,1350],[1479,-549],[446,-2364]],[[74175,17709],[657,-4806],[-1400,-1542],[388,-1374],[-593,-1099],[821,-1718],[183,-1236],[-1690,-538]],[[72541,5396],[-666,2186],[-2221,3645],[-2019,2275],[-1046,1993]],[[74175,17709],[-235,2874],[-380,859]],[[73560,21442],[478,266]],[[74038,21708],[627,297],[1430,-1209],[317,-1472],[677,1006],[941,-1472],[319,588]],[[78349,19446],[974,-998],[2344,732]],[[81667,19180],[33,-989],[1061,-4037]],[[82761,14154],[-484,-189],[317,-2201],[-296,-3172],[604,-402],[20,-1575]],[[82922,6615],[-1093,-1976],[-1067,-3015],[-1101,-965],[-1420,528],[-629,-1187],[-1565,470],[-1913,1579],[-865,1117],[-728,2230]],[[97707,19669],[-1927,-1678],[-425,-1511],[-1371,-1972],[-292,-1701]],[[93692,12807],[-1452,1897],[-143,-1397],[-1000,430],[-1536,1612],[-1285,-537],[35,2365],[-1464,-323]],[[86847,16854],[-321,1613],[1357,1182],[-594,2610]],[[87289,22259],[2096,264],[-9,852],[1211,1296],[457,-781],[1372,-86]],[[93692,12807],[-1588,-2183],[-384,-1839],[-337,-3501],[-2123,187],[-1231,1349],[-1194,-1828],[-1239,1600],[-862,438],[-1812,-415]],[[82761,14154],[1015,-1062],[1464,107],[643,1075],[-72,1828],[1036,752]],[[34,24611],[160,1291],[-167,4079],[480,2362]],[[507,32343],[420,1166]],[[927,33509],[358,-3609],[21,4440]],[[1306,34340],[897,200],[265,-2833],[882,89],[206,-3364]],[[507,32343],[-67,2690],[487,-1524]],[[1163,35050],[-837,1571],[392,2747]],[[718,39368],[643,-386],[496,-3030],[-694,-902]],[[1306,34340],[-143,710]],[[718,39368],[352,1709]],[[1070,41077],[1045,-870],[441,1947],[794,-1505],[647,443]],[[3997,41092],[323,-1859],[-382,-974],[30,-2391],[1264,532],[88,-1682]],[[1070,41077],[263,4905],[0,2991],[2175,2548],[1453,2737]],[[4961,54258],[933,-1296]],[[5894,52962],[141,-787],[1205,-816]],[[7240,51359],[-786,-1504]],[[6454,49855],[43,-1149],[-1647,-1328],[-59,-2833]],[[4791,44545],[-765,0],[383,-2391],[-412,-1062]],[[16912,82661],[567,-1573],[503,-2933],[-2,-1738],[-1344,-1468],[-506,-1427],[-826,-597],[1017,-770],[1489,-277]],[[17810,71878],[311,-689],[368,-3841],[-1045,-1888],[-620,-1854],[252,-867]],[[17076,62739],[-192,-2212],[-1342,-953],[-1103,502],[-1085,-685],[-4072,705],[-933,-1187]],[[8349,58909],[-933,-416],[-450,-2601],[-21,-1728],[-1051,-1202]],[[4961,54258],[749,1467],[429,2668],[-173,3244],[281,5706],[811,1865],[518,2241],[984,2125],[1519,4840],[1000,1279],[3140,589],[2693,2379]],[[16912,82661],[3990,3525],[1408,715],[200,-659],[-181,-3275]],[[22329,82967],[-233,-1991],[536,-1614],[221,-3132]],[[22853,76230],[-1073,-190],[-977,-3513],[-1767,-95],[-315,949],[-911,-1503]],[[22329,82967],[187,-1448],[764,-1842],[3074,-4339],[1596,-2880]],[[27950,72458],[-839,-1450],[-1199,475],[-1451,2943],[-504,-950],[-158,1899],[-946,855]],[[27950,72458],[508,-724]],[[28458,71734],[-338,-1106],[-1199,-1424],[473,-1519],[1388,-569],[351,-1860]],[[29133,65256],[-1560,-2281],[-502,-1618]],[[27071,61357],[-1695,-330],[-651,-1009],[-1646,-731],[-79,-3275],[-1760,-84]],[[21240,55928],[-1736,242],[-462,3756],[-1966,2813]],[[28458,71734],[1363,-983],[413,-2167]],[[30234,68584],[-444,-261],[-210,-1953]],[[29580,66370],[-447,-1114]],[[30234,68584],[532,-3921],[327,-713],[387,-3844],[1236,-2320],[2324,-1135],[966,-2041]],[[36006,54610],[-1087,-860],[-312,-1034]],[[34607,52716],[-1447,-1081],[-3182,1039],[765,1337],[-271,1856],[739,2227],[-370,1633],[-1257,1336],[-173,743],[444,2227],[-275,2337]],[[36006,54610],[1608,-615],[2358,951],[840,671]],[[40812,55617],[379,-621]],[[41191,54996],[-1248,-1505],[-3774,-1336],[-1357,484]],[[34812,52639],[-205,77]],[[40812,55617],[887,1034],[613,1568],[1067,819]],[[43379,59038],[681,-1491]],[[44060,57547],[1933,-2567],[244,-912]],[[46237,54068],[-1180,-1605]],[[45057,52463],[332,-2383],[-852,376]],[[44537,50456],[-573,844],[-928,-1090]],[[43036,50210],[-302,415]],[[42734,50625],[-548,1391],[-1157,791]],[[41029,52807],[804,1685],[-642,504]],[[43379,59038],[1349,1453],[1656,3157]],[[46384,63648],[248,-661]],[[46632,62987],[-154,-2310],[-997,-1213],[-250,-1617]],[[45231,57847],[-1171,-300]],[[46384,63648],[963,2424],[58,3736]],[[47405,69808],[318,-2354],[460,140]],[[48183,67594],[367,-2355],[-595,-115],[-997,-2195]],[[46958,62929],[-326,58]],[[47405,69808],[-138,2156]],[[53980,81293],[-20,-1732],[499,-1128],[1464,-20],[790,-2288]],[[56713,76125],[-1369,-1966],[-1289,-1328],[-1199,-393],[437,-661]],[[53293,71777],[-1980,-243],[192,-1675],[-902,-1213],[671,-1386],[383,-2478],[-435,-165]],[[51222,64617],[-1815,3873],[-1224,-896]],[[73220,69099],[-195,-2038],[-2217,-157],[-589,-534]],[[70219,66370],[-923,1027],[-3060,-470]],[[66236,66927],[-341,-149]],[[65895,66778],[89,2598],[-644,1914],[125,715],[-773,2641]],[[64692,74646],[834,1327],[799,130]],[[66325,76103],[2193,-966],[135,2231]],[[87895,46329],[-2122,462],[-349,729],[-1419,-457],[-1265,382],[-521,895]],[[82219,48340],[343,647]],[[82562,48987],[439,1310]],[[83001,50297],[703,239],[2264,-946],[345,1419],[1478,1703],[-252,1798],[-723,-284],[880,3690],[-3143,1230],[0,946],[-1235,16]],[[83318,60108],[2048,4646]],[[63772,80855],[-1123,1332],[1257,938],[281,2080],[928,781]],[[66325,76103],[626,1040],[-1080,391],[540,780],[-993,975],[-216,1625],[-1430,-59]],[[64692,74646],[-767,168],[-1042,-1264],[-1766,127]],[[61117,73677],[-300,2816]],[[60817,76493],[756,-130],[346,1301]],[[61919,77664],[1853,3191]],[[61919,77664],[-238,780],[-842,-260]],[[60839,78184],[-907,1495],[-1707,3641],[-1317,-845]],[[60839,78184],[-22,-1691]],[[61117,73677],[-165,-2292]],[[60952,71385],[-884,807],[-1737,679],[-1018,3035],[-600,219]],[[87289,22259],[-2002,224],[-679,-1564],[-877,388]],[[83731,21307],[-1293,5516],[646,771],[-1290,3314],[382,1508]],[[82176,32416],[1493,26],[107,752],[-822,5267],[-928,323],[-857,2365],[-1101,958]],[[80068,42107],[144,1096],[2007,5137]],[[66236,66927],[-343,-2722],[367,-585]],[[66260,63620],[43,-1885],[1469,-2341],[578,6]],[[68350,59400],[-379,-2956],[385,-1383],[-513,-1193]],[[67843,53868],[-2197,1431],[-1346,-1478],[124,1315],[-1013,-526],[-843,528]],[[62568,55138],[42,1721],[562,-650],[950,1885],[-302,1820],[-735,521],[303,1040]],[[63388,61475],[-44,3121]],[[63344,64596],[562,1755]],[[63906,66351],[1989,427]],[[63906,66351],[-1231,3966],[1253,715],[764,3614]],[[70219,66370],[-751,-891],[128,-946]],[[69596,64533],[-938,-1238],[-1059,-260],[-691,910],[-648,-325]],[[63344,64596],[-820,-261],[-476,2536],[-993,1040],[-2247,1171]],[[58808,69082],[756,1235],[972,-130],[416,1198]],[[58808,69082],[0,-1431]],[[58808,67651],[-345,-1300],[-1037,65],[-561,-780]],[[56865,65636],[-1512,-390],[-660,332]],[[54693,65578],[36,1330],[-649,1286],[-787,3583]],[[54693,65578],[-452,-1144]],[[54241,64434],[-1067,-1505],[-595,-1963]],[[52579,60966],[-595,520],[-978,-924]],[[51006,60562],[115,1848],[-748,288],[-58,1098],[907,821]],[[83318,60108],[-758,-2062],[-1278,-1944],[-7,-1454]],[[81275,54648],[-1413,413],[-2613,-1850]],[[77249,53211],[-486,3191],[-978,1496],[-1279,-691]],[[74506,57207],[-663,2212],[-1905,-635]],[[71938,58784],[-916,-189]],[[71022,58595],[708,2715],[-1088,2759],[-1046,464]],[[83001,50297],[-430,1764],[-587,773],[79,1246],[-788,568]],[[71022,58595],[-938,-53],[-1734,858]],[[81667,19180],[1100,1662],[964,465]],[[81667,19180],[-83,962],[-1112,1374],[513,1202],[-770,2834],[-1826,2232],[257,1374],[884,1116],[-1512,2233],[-656,-687]],[[77362,31820],[-542,515],[48,1827]],[[76868,34162],[770,-36],[433,2281]],[[78071,36407],[1304,-26],[295,654]],[[79670,37035],[993,-783],[-555,-1163],[1750,-1363],[696,-94],[-378,-1216]],[[79670,37035],[-199,808],[822,1194],[-225,3070]],[[41029,52807],[-1654,-2286],[444,-2375]],[[39819,48146],[-1177,-1096]],[[35015,50977],[-203,1662]],[[45231,57847],[1017,-1328],[575,1213],[1324,635],[691,1386]],[[48838,59753],[77,-1097],[706,-811]],[[49621,57845],[-613,-329],[148,-2078],[-1801,-297],[-408,-2096]],[[46947,53045],[-710,1023]],[[44537,50456],[-278,-603],[567,-1633],[1283,-149],[429,1101],[1407,-559]],[[47945,48613],[948,-854]],[[48893,47759],[176,-2687]],[[49069,45072],[-2467,1440],[-1283,-74],[222,-1633],[-1036,-223],[-90,-941]],[[44415,43641],[-587,426],[-1896,-757]],[[41932,43310],[-163,852]],[[41769,44162],[122,1311],[1110,0],[518,2450],[-483,2287]],[[42734,50625],[-744,-1440],[-1752,-371],[-419,-668]],[[41769,44162],[-1151,620],[-1540,-660],[-620,607]],[[44999,42872],[-1372,-1293],[-1339,828]],[[42288,42407],[-356,903]],[[44415,43641],[584,-769]],[[45057,52463],[1249,-605],[148,-817],[962,1262]],[[47416,52303],[713,-1649]],[[48129,50654],[-184,-2041]],[[46947,53045],[469,-742]],[[51006,60562],[-1343,519],[-825,-1328]],[[48838,59753],[-576,3176],[-1304,0]],[[57651,54913],[-69,-1603]],[[57582,53310],[-1466,-697],[-1124,274],[-888,-744],[-1146,465]],[[52958,52608],[144,2310]],[[53102,54918],[993,908],[-327,3407],[1627,-560],[73,-803],[2183,-2957]],[[53102,54918],[-1258,0],[-789,965],[-542,2005]],[[50513,57888],[1778,710],[288,2368]],[[54241,64434],[1003,-1699],[198,-2204],[1725,-617]],[[57167,59914],[778,-1755],[-497,-650],[497,-1560],[-294,-1036]],[[80068,42107],[-891,1749],[-821,-260],[-562,-1106],[-993,-520],[-2031,0],[-178,-1735]],[[74592,40235],[-1162,-2044],[-139,1006],[-781,-43],[-463,1347],[-829,481],[-1492,-1021],[-541,1508],[-711,-1154]],[[68474,40315],[-349,2467],[-999,624],[115,3196],[-1066,1617]],[[66175,48219],[-239,1618],[367,975],[1167,650],[1209,0],[87,781],[-923,1625]],[[71938,58784],[46,-4071],[-216,-1300],[713,-1040],[885,520],[994,-390],[648,2405],[-502,2299]],[[77249,53211],[-1312,-3894],[864,-2211],[583,131],[1857,4095],[195,-520],[1857,390],[1269,-2215]],[[78071,36407],[-613,822],[144,1313],[-1507,456],[-1503,1237]],[[62350,55123],[-1274,-2373],[-570,1508],[-971,-365],[-692,-1268],[-1261,685]],[[57167,59914],[842,326],[540,1170],[-734,3381],[-950,845]],[[58808,67651],[1772,-2665],[280,-1821],[1080,-1300],[1448,-390]],[[62568,55138],[-218,-15]],[[66175,48219],[-486,-1905],[-524,-491]],[[65165,45823],[-323,768],[-2255,1001]],[[62587,47592],[-300,2246],[994,281],[-548,996],[216,1442],[-599,2566]],[[62587,47592],[-937,-1574],[-2488,-1622],[294,-1631]],[[59456,42765],[-1409,269]],[[58047,43034],[-1087,1405]],[[56960,44439],[-771,2176],[-1628,463]],[[54561,47078],[-1474,1386],[-461,-2218],[-806,-1837],[-1893,3146]],[[49927,47555],[1090,1704],[468,-594],[494,1114],[-595,1234]],[[51384,51013],[1574,1595]],[[51384,51013],[-1641,-366],[-747,557],[-280,-1234],[-587,684]],[[49621,57845],[892,43]],[[49927,47555],[-1034,204]],[[49069,45072],[-50,-1609]],[[46722,41300],[-1723,1572]],[[54561,47078],[-983,-1572],[-725,-1978],[944,-822],[510,-1984],[1194,-1132],[450,173]],[[55951,39763],[347,-521]],[[56298,39242],[-100,-912],[-1273,-476]],[[42908,36064],[383,1864],[-1105,930],[427,678],[-656,1652],[331,1219]],[[68474,40315],[-1984,-1185],[-433,122]],[[66057,39252],[-177,209],[-2404,-1685]],[[63476,37776],[-838,87],[-187,1372]],[[62451,39235],[1201,2666],[-185,1479],[645,185],[-215,2033],[768,-462],[500,687]],[[62451,39235],[-1339,784],[-1450,-1645]],[[59662,38374],[-3,3527],[-203,864]],[[59662,38374],[-1076,-92],[-1059,1257]],[[57527,39539],[566,883],[-46,2612]],[[57527,39539],[-1229,-297]],[[55951,39763],[-103,2365],[529,825],[-366,1070],[949,416]],[[63476,37776],[516,-373],[-670,-2369],[497,-1807]],[[78349,19446],[-616,1297],[941,430],[29,1717],[-456,2404],[-542,258]],[[77705,25552],[-143,1545],[-1797,1632],[257,1374],[855,-687],[485,2404]],[[73560,21442],[-504,1139],[-976,635],[61,2410],[-565,3996],[-944,1083]],[[70632,30705],[894,949],[1433,3435],[717,151],[736,-2690],[1317,1580],[1139,32]],[[77705,25552],[-542,-601],[-1655,-86],[-1198,1889],[-29,-1546],[-827,430],[584,-3930]],[[65740,28404],[829,370],[676,2218],[-461,1295],[232,3432]],[[67016,35719],[720,358],[645,-925],[-673,-756],[2465,-1825],[459,-1866]],[[67016,35719],[-546,132],[-535,1495],[122,1906]],[[6454,49855],[1095,-981],[1065,49],[506,-1879],[1500,-1485],[403,-2464],[764,-703]],[[11787,42392],[19,-1691],[-657,-1389],[257,-1675]],[[8321,37108],[647,1151],[-147,2302],[-500,619],[-1648,-531],[-294,1151],[-1588,2745]],[[7240,51359],[978,282],[1956,1899],[-190,1708],[-504,475],[-221,1614],[-910,1572]],[[21240,55928],[-494,-1303],[-242,-2714]],[[16473,46842],[-969,1191],[-1514,-95],[-662,-949],[347,-2753],[-1010,-475],[-878,-1369]],[[27071,61357],[342,-739],[-814,-1559],[-764,-445],[518,-2450],[-666,-520],[0,-2376],[1184,-1410],[370,-2525]],[[27241,49333],[-1480,-222],[148,-891],[-797,-1011]],[[25112,47209],[-2026,181],[-107,660],[-1979,1138]],[[34737,47709],[-1073,-976],[-1198,-427],[-308,-2773],[-2433,-686]],[[29725,42847],[-413,918],[-789,3564],[-1430,148],[148,1856]],[[25239,37428],[-238,1569],[826,460],[256,1124],[-816,2150],[357,86]],[[25624,42817],[2209,525],[587,-656],[1305,161]],[[25624,42817],[-75,3050],[-437,1342]]],"transform":{"scale":[0.00007248749252492522,0.00002408171664716663],"translate":[20.968597852000073,55.66699086600006]}}