{"type":"Topology","objects":{"subunits":{"type":"GeometryCollection","name":"WSM_subunits","crs":{"type":"name","properties":{"name":"urn:ogc:def:crs:OGC:1.3:CRS84"}},"geometries":[{"type":"MultiPolygon","properties":{"name":"Gaga'emauga","fips":"WS05","postal":null,"scalerank":5,"country":"WSM","latitude":-13.9658,"longitude":-171.861,"type":null},"id":"WS-GE","arcs":[[[0,1,2,3,4,5]],[[6,7]],[[8,9,10]]]},{"type":"Polygon","properties":{"name":"Gaga'ifomauga","fips":"WS07","postal":null,"scalerank":5,"country":"WSM","latitude":-13.5461,"longitude":-172.467,"type":null},"id":"WS-GI","arcs":[[11,-6,12,13,14]]},{"type":"Polygon","properties":{"name":"Vaisigano","fips":"WS11","postal":null,"scalerank":5,"country":"WSM","latitude":-13.5561,"longitude":-172.701,"type":null},"id":"WS-VS","arcs":[[15,-15,16]]},{"type":"MultiPolygon","properties":{"name":"Satupa'itea","fips":"WS09","postal":null,"scalerank":5,"country":"WSM","latitude":-13.6365,"longitude":-172.635,"type":null},"id":"WS-SA","arcs":[[[17,-17,-14,18]],[[19,20,-4,21]]]},{"type":"MultiPolygon","properties":{"name":"Palauli","fips":"WS08","postal":null,"scalerank":5,"country":"WSM","latitude":-13.7195,"longitude":-172.454,"type":null},"id":"WS-PA","arcs":[[[22,-19,-13,-5,-21]],[[23,-22,-3,24]]]},{"type":"Polygon","properties":{"name":"Fa'asaleleaga","fips":"WS04","postal":null,"scalerank":5,"country":"WSM","latitude":-13.6516,"longitude":-172.243,"type":null},"id":"WS-FA","arcs":[[25,-25,-2]]},{"type":"Polygon","properties":{"name":"Atua","fips":"WS03","postal":null,"scalerank":5,"country":"WSM","latitude":-14.0212,"longitude":-171.592,"type":null},"id":"WS-AT","arcs":[[26,27,28,29,30,31]]},{"type":"MultiPolygon","properties":{"name":"Va'a-o-Fonoti","fips":"WS06","postal":null,"scalerank":5,"country":"WSM","latitude":-13.9633,"longitude":-171.549,"type":null},"id":"WS-VF","arcs":[[[32,-32]],[[33,-28]]]},{"type":"Polygon","properties":{"name":"Tuamasaga","fips":"WS10","postal":null,"scalerank":5,"country":"WSM","latitude":-13.9415,"longitude":-171.752,"type":null},"id":"WS-TU","arcs":[[34,-30,35,-11,36,37,-8]]},{"type":"MultiPolygon","properties":{"name":"A'ana","fips":"WS01","postal":null,"scalerank":5,"country":"WSM","latitude":-13.9005,"longitude":-171.919,"type":null},"id":"WS-AA","arcs":[[[38,-37,-10,39,40]],[[41,42]]]},{"type":"Polygon","properties":{"name":"Aiga-i-le-Tai","fips":"WS02","postal":null,"scalerank":5,"country":"WSM","latitude":-13.8904,"longitude":-172.039,"type":null},"id":"WS-AL","arcs":[[43,-41,44,-43]]}]},"places":{"type":"GeometryCollection","name":"WSM_places","crs":{"type":"name","properties":{"name":"urn:ogc:def:crs:OGC:1.3:CRS84"}},"geometries":[{"type":"Point","properties":{"name":"Apia","scalerank":3,"subregion":null,"latitude":-13.841545,"longitude":-171.738642},"id":"Q36260","coordinates":[75395,36798]}]}},"arcs":[[[30963,99999],[1616,-28],[1639,-662],[1607,-1627],[1507,-2897],[4293,-10979]],[[41625,83806],[-5537,-565],[-1021,-13189]],[[35067,70052],[-2712,159]],[[32355,70211],[-3240,189]],[[29115,70400],[-1723,101]],[[27392,70501],[3571,29498]],[[71951,40881],[1681,-826]],[[73632,40055],[65,-9181],[-1532,775],[-214,9232]],[[69039,8634],[-1604,-475]],[[67435,8159],[306,10689],[1755,-359]],[[69496,18489],[-457,-9855]],[[10677,89958],[1758,2151],[844,497],[1646,331],[941,524],[2006,2290],[862,662],[5857,0],[1516,524],[3141,2359],[1715,703]],[[27392,70501],[-12236,715]],[[15156,71216],[-3945,5555]],[[11211,76771],[-534,13187]],[[5882,73930],[-1135,2345],[-233,841],[-85,1780],[-190,910],[-424,524],[-983,-193],[-390,290],[-851,2248],[-1137,3890],[-454,3696],[1192,1655],[2541,0],[2769,-2317],[2523,-165],[1652,524]],[[11211,76771],[-1841,2591],[-3488,-5432]],[[12910,60979],[-1011,896],[-780,993],[-1598,5545],[-962,2593],[-1924,1655],[-753,1269]],[[15156,71216],[-2246,-10237]],[[34512,47724],[-2681,-2160]],[[31831,45564],[-2716,24836]],[[32355,70211],[2157,-22487]],[[31831,45564],[-1053,-847],[-11490,-2773],[-723,1145],[-763,2262],[-593,1311],[-1207,1475],[-578,1021],[-248,1490],[-154,1558],[-699,3393],[-161,2056],[-372,2041],[-880,1283]],[[42354,42689],[-454,-745],[-1764,42],[-777,372],[-784,828],[-1171,2234],[-608,1669],[-732,883],[-1552,-248]],[[35067,70052],[4254,-19783],[1362,-2715],[1671,-4865]],[[41625,83806],[66,-717],[-127,-1917],[61,-745],[390,-759],[908,-827],[318,-828],[257,-1793],[142,-1821],[57,-3903],[345,-3242],[660,-1972],[426,-2138],[-369,-3751],[-747,-2635],[-853,-2069],[-696,-2441],[-284,-3917],[220,-3890],[-45,-1752]],[[90342,26455],[753,-3131],[-121,-1724]],[[90974,21600],[-1961,-424],[-511,-6983],[2553,-2327],[2893,1164],[2553,-2716],[1144,3824]],[[97645,14138],[2354,-6221],[-781,-5324],[215,-662],[339,-1765],[-1891,-166],[-5261,1214],[-3144,-648],[-1458,289],[-1537,1738],[-1213,-1462],[-1235,166]],[[84033,1297],[-976,19491],[1140,9984]],[[84197,30772],[3219,-827],[1619,-1311]],[[89035,28634],[-1043,-3967],[851,-388],[1499,2176]],[[89035,28634],[1307,-2179]],[[90974,21600],[-496,-1021],[-318,-1145],[427,-1903],[3331,786],[3727,-4179]],[[73632,40055],[10565,-9283]],[[84033,1297],[-2350,1296],[-1199,-248],[-3185,-2179],[-766,55],[-650,469],[-448,938],[-170,1420],[-311,1449],[-732,689],[-1492,759],[-1322,1572],[-1171,897],[-1198,220]],[[69496,18489],[287,6178],[-681,5819],[-347,11290]],[[68755,41776],[1736,-176],[1460,-719]],[[58738,38070],[2038,1640],[6321,2234],[1658,-168]],[[67435,8159],[-1328,-394],[-1310,97],[-1152,897],[-1068,1820],[-1556,5476],[-780,2014],[-714,-538],[-508,0],[-1298,4138],[-872,1200],[-1682,455]],[[55167,23324],[5086,7162],[-1515,7584]],[[54054,32358],[859,2635],[1190,957]],[[56103,35950],[746,-3913],[-1021,-1163],[-1774,1484]],[[56103,35950],[2635,2120]],[[55167,23324],[-1516,1531],[-196,3586],[599,3917]]],"transform":{"scale":[0.000013449027720277098,0.000005900124101241246],"translate":[-172.7825821609999,-14.05282968499995]}}