{"type":"Topology","objects":{"subunits":{"type":"GeometryCollection","name":"AZE_subunits","crs":{"type":"name","properties":{"name":"urn:ogc:def:crs:OGC:1.3:CRS84"}},"geometries":[{"type":"MultiPolygon","properties":{"name":"Qazax","fips":"AJ40","postal":"QZ","scalerank":9,"country":"AZE","latitude":41.0778,"longitude":45.2004,"type":"Rayon"},"id":"AZ-QAZ","arcs":[[[0]],[[1,2]],[[3]]]},{"type":"Polygon","properties":{"name":"Ağstafa","fips":"AJ05","postal":"AF","scalerank":9,"country":"AZE","latitude":41.1896,"longitude":45.4341,"type":"Rayon"},"id":"AZ-AGA","arcs":[[4,-3,5,6]]},{"type":"Polygon","properties":{"name":"Tovuz","fips":"AJ58","postal":"TO","scalerank":9,"country":"AZE","latitude":41.0669,"longitude":45.8238,"type":"Rayon"},"id":"AZ-TOV","arcs":[[7,-7,8,9,10,11]]},{"type":"Polygon","properties":{"name":"Gədəbəy","fips":"AJ19","postal":"GD","scalerank":9,"country":"AZE","latitude":40.492,"longitude":45.6429,"type":"Rayon"},"id":"AZ-GAD","arcs":[[-12,12,13,14],[15]]},{"type":"Polygon","properties":{"name":"Daşkəsən","fips":"AJ16","postal":"DS","scalerank":9,"country":"AZE","latitude":40.4837,"longitude":46.0228,"type":"Rayon"},"id":"AZ-DAS","arcs":[[16,-14,17,18,19]]},{"type":"Polygon","properties":{"name":"Kəlbəcər","fips":"AJ26","postal":"KA","scalerank":9,"country":"AZE","latitude":40.0966,"longitude":46.1688,"type":"Rayon"},"id":"AZ-KAL","arcs":[[-20,20,21,22,23,24,25,26]]},{"type":"Polygon","properties":{"name":"Shusha","fips":"AJ55","postal":"SU","scalerank":9,"country":"AZE","latitude":39.7717,"longitude":46.3095,"type":"Rayon"},"id":"AZ-LAN","arcs":[[27,-26,28,29,30,31]]},{"type":"Polygon","properties":{"name":"Qubadli","fips":"AJ43","postal":"QD","scalerank":9,"country":"AZE","latitude":39.3434,"longitude":46.5917,"type":"Rayon"},"id":"AZ-QBI","arcs":[[32,-32,33,34,35]]},{"type":"Polygon","properties":{"name":"Zəngilan","fips":"AJ69","postal":"ZG","scalerank":9,"country":"AZE","latitude":39.0904,"longitude":46.6305,"type":"Rayon"},"id":"AZ-ZAN","arcs":[[-36,36,37]]},{"type":"Polygon","properties":{"name":"Şərur","fips":"AM10","postal":"SR","scalerank":9,"country":"AZE","latitude":39.5929,"longitude":45.0172,"type":"Rayon"},"id":"AZ-SAR","arcs":[[38,39,40,41]]},{"type":"Polygon","properties":{"name":"Sədərək","fips":"AJ77","postal":"SD","scalerank":9,"country":"AZE","latitude":39.699,"longitude":44.8638,"type":"Rayon"},"id":"AZ-SAD","arcs":[[-41,42]]},{"type":"Polygon","properties":{"name":"Kangarli","fips":"AJ74","postal":"SR","scalerank":9,"country":"AZE","latitude":39.4039,"longitude":45.1447,"type":"Rayon"},"id":"AZ-KAN","arcs":[[43,44,45,-39]]},{"type":"Polygon","properties":{"name":"Babək","fips":"AJ72","postal":"BB","scalerank":9,"country":"AZE","latitude":39.1871,"longitude":45.3373,"type":"Rayon"},"id":"AZ-BAB","arcs":[[46,47,48,49,50,51,-45]]},{"type":"Polygon","properties":{"name":"Şahbuz","fips":"AJ78","postal":"SH","scalerank":9,"country":"AZE","latitude":39.4227,"longitude":45.5799,"type":"Rayon"},"id":"AZ-SAH","arcs":[[52,53,-48]]},{"type":"Polygon","properties":{"name":"Culfa","fips":"AJ73","postal":"CF","scalerank":9,"country":"AZE","latitude":39.136,"longitude":45.6847,"type":"Rayon"},"id":"AZ-CUL","arcs":[[54,55,56,-51,57,-49,-54]]},{"type":"Polygon","properties":{"name":"Ordubad","fips":"AJ76","postal":"OR","scalerank":9,"country":"AZE","latitude":39.0972,"longitude":45.9272,"type":"Rayon"},"id":"AZ-ORD","arcs":[[58,-56]]},{"type":"Polygon","properties":{"name":"Balakən","fips":"AJ10","postal":"BL","scalerank":9,"country":"AZE","latitude":41.7393,"longitude":46.4478,"type":"Rayon"},"id":"AZ-BAL","arcs":[[59,60]]},{"type":"Polygon","properties":{"name":"Zaqatala","fips":"AJ70","postal":"ZQ","scalerank":9,"country":"AZE","latitude":41.5666,"longitude":46.654,"type":"Rayon"},"id":"AZ-ZAQ","arcs":[[61,62,63,-60]]},{"type":"Polygon","properties":{"name":"Xaçmaz","fips":"AJ60","postal":"XZ","scalerank":9,"country":"AZE","latitude":41.5198,"longitude":48.7701,"type":"Rayon"},"id":"AZ-XAC","arcs":[[64,65,66,67]]},{"type":"Polygon","properties":{"name":"Qusar","fips":"AJ44","postal":"QR","scalerank":9,"country":"AZE","latitude":41.4005,"longitude":48.1944,"type":"Rayon"},"id":"AZ-QUS","arcs":[[68,-68,69,70]]},{"type":"Polygon","properties":{"name":"Oğuz","fips":"AJ37","postal":"OG","scalerank":9,"country":"AZE","latitude":41.04,"longitude":47.4853,"type":"Rayon"},"id":"AZ-OGU","arcs":[[71,72,73]]},{"type":"Polygon","properties":{"name":"Şəki","fips":"AJ47","postal":"SK","scalerank":9,"country":"AZE","latitude":41.0486,"longitude":47.1565,"type":"Rayon"},"id":"AZ-SA","arcs":[[-74,74,75,76,77,78]]},{"type":"Polygon","properties":{"name":"Qax","fips":"AJ39","postal":"QX","scalerank":9,"country":"AZE","latitude":41.375,"longitude":46.7976,"type":"Rayon"},"id":"AZ-QAX","arcs":[[79,-78,80,81,82,-63]]},{"type":"Polygon","properties":{"name":"Qəbələ","fips":"AJ38","postal":"QA","scalerank":9,"country":"AZE","latitude":40.9578,"longitude":47.7784,"type":"Rayon"},"id":"AZ-QAB","arcs":[[83,-71,84,85,86,87,-75,-73]]},{"type":"Polygon","properties":{"name":"Samux","fips":"AJ52","postal":"SX","scalerank":9,"country":"AZE","latitude":40.8795,"longitude":46.4234,"type":"Rayon"},"id":"AZ-SMX","arcs":[[88,-82,89,90,91,92,93,-10]]},{"type":"Polygon","properties":{"name":"İmişli","fips":"AJ24","postal":"IM","scalerank":9,"country":"AZE","latitude":39.9121,"longitude":48.0606,"type":"Rayon"},"id":"AZ-IMI","arcs":[[94,95,96,97,98,99,100]]},{"type":"Polygon","properties":{"name":"Biləsuvar","fips":"AJ13","postal":"BS","scalerank":9,"country":"AZE","latitude":39.4604,"longitude":48.3681,"type":"Rayon"},"id":"AZ-BIL","arcs":[[101,-101,102,103,104,105]]},{"type":"Polygon","properties":{"name":"Cəlilabad","fips":"AJ15","postal":"CL","scalerank":9,"country":"AZE","latitude":39.1757,"longitude":48.4338,"type":"Rayon"},"id":"AZ-CAL","arcs":[[106,-106,107,108,109]]},{"type":"Polygon","properties":{"name":"Yardımlı","fips":"AJ66","postal":"YR","scalerank":9,"country":"AZE","latitude":38.866,"longitude":48.269,"type":"Rayon"},"id":"AZ-YAR","arcs":[[110,-110,111,112]]},{"type":"Polygon","properties":{"name":"Lerik","fips":"AJ31","postal":"LE","scalerank":9,"country":"AZE","latitude":38.7139,"longitude":48.4779,"type":"Rayon"},"id":"AZ-LER","arcs":[[113,-113,114,115,116]]},{"type":"Polygon","properties":{"name":"Cəbrayıl","fips":"AJ14","postal":"CB","scalerank":9,"country":"AZE","latitude":39.2768,"longitude":46.9823,"type":"Rayon"},"id":"AZ-CAB","arcs":[[-37,-35,117,118,119]]},{"type":"Polygon","properties":{"name":"Füzuli","fips":"AJ18","postal":"FU","scalerank":9,"country":"AZE","latitude":39.5574,"longitude":47.322,"type":"Rayon"},"id":"AZ-FUZ","arcs":[[120,-119,121,122,123]]},{"type":"Polygon","properties":{"name":"Beyləqan","fips":"AJ12","postal":"BQ","scalerank":9,"country":"AZE","latitude":39.7591,"longitude":47.6611,"type":"Rayon"},"id":"AZ-BEY","arcs":[[124,-124,125,126,-96]]},{"type":"Polygon","properties":{"name":"Astara","fips":"AJ08","postal":"AA","scalerank":9,"country":"AZE","latitude":38.4938,"longitude":48.7049,"type":"Rayon"},"id":"AZ-AST","arcs":[[-117,127,128]]},{"type":"Polygon","properties":{"name":"Dəvəçi","fips":"AJ17","postal":"DV","scalerank":9,"country":"AZE","latitude":41.1969,"longitude":48.9074,"type":"Rayon"},"id":"AZ-SBN","arcs":[[129,130,131,132,133,-66]]},{"type":"Polygon","properties":{"name":"Siyəzən","fips":"AJ53","postal":"SY","scalerank":9,"country":"AZE","latitude":41.0414,"longitude":49.0973,"type":"Rayon"},"id":"AZ-SIY","arcs":[[134,135,-131]]},{"type":"Polygon","properties":{"name":"Xizı","fips":"AJ63","postal":"XI","scalerank":9,"country":"AZE","latitude":40.7249,"longitude":49.154,"type":"Rayon"},"id":"AZ-XIZ","arcs":[[136,137,138,139,140,-132,-136]]},{"type":"Polygon","properties":{"name":"Sumqayıt","fips":"AJ54","postal":"SQ","scalerank":9,"country":"AZE","latitude":40.5841,"longitude":49.5962,"type":"Sahar"},"id":"AZ-SM","arcs":[[141,142,143,-138]]},{"type":"MultiPolygon","properties":{"name":"Bakı","fips":"AJ09","postal":"BA","scalerank":9,"country":"AZE","latitude":40.4447,"longitude":50.0435,"type":"Sahar"},"id":"AZ-BA","arcs":[[[144,145,146,147,-143],[148]],[[149]],[[150]]]},{"type":"Polygon","properties":{"name":"Salyan","fips":"AJ49","postal":"SL","scalerank":9,"country":"AZE","latitude":39.7198,"longitude":49.0495,"type":"Rayon"},"id":"AZ-SAL","arcs":[[151,152,-105,153,154,155,-146]]},{"type":"Polygon","properties":{"name":"Neftçala","fips":"AJ36","postal":"NE","scalerank":9,"country":"AZE","latitude":39.3924,"longitude":49.0585,"type":"Rayon"},"id":"AZ-NEF","arcs":[[156,157,158,-108,-153]]},{"type":"MultiPolygon","properties":{"name":"Lankaran","fips":"AJ29","postal":"NE","scalerank":9,"country":"AZE","latitude":38.7168,"longitude":48.7309,"type":"Rayon"},"id":"AZ-LA","arcs":[[[159,-158,160]],[[-128,-116,161,162]]]},{"type":"Polygon","properties":{"name":"Masallı","fips":"AJ32","postal":"MA","scalerank":9,"country":"AZE","latitude":38.9858,"longitude":48.698,"type":"Rayon"},"id":"AZ-MAS","arcs":[[163,-162,-115,-112,-109,-159,-160]]},{"type":"Polygon","properties":{"name":"Naxçıvan","fips":"AJ75","postal":"NX","scalerank":9,"country":"AZE","latitude":39.2127,"longitude":45.4212,"type":"Sahar"},"id":"AZ-NX","arcs":[[-58,-50]]},{"type":"Polygon","properties":{"name":"Xocalı","fips":"AJ64","postal":"XC","scalerank":9,"country":"AZE","latitude":39.8925,"longitude":46.6804,"type":"Rayon"},"id":"AZ-XCI","arcs":[[-29,-25,164,165,166],[167]]},{"type":"Polygon","properties":{"name":"Ağdam","fips":"AJ03","postal":"AM","scalerank":9,"country":"AZE","latitude":40.0455,"longitude":46.9918,"type":"Rayon"},"id":"AZ-AGM","arcs":[[-165,-24,168,169,170,171]]},{"type":"Polygon","properties":{"name":"Tərtər","fips":"AJ57","postal":"TA","scalerank":9,"country":"AZE","latitude":40.2547,"longitude":46.7929,"type":"Rayon"},"id":"AZ-TAR","arcs":[[-169,-23,172,173,174]]},{"type":"Polygon","properties":{"name":"Goranboy","fips":"AJ21","postal":"GR","scalerank":9,"country":"AZE","latitude":40.5463,"longitude":46.645,"type":"Rayon"},"id":"AZ-GOR","arcs":[[-173,-22,175,-90,176],[177]]},{"type":"Polygon","properties":{"name":"Xocavənd","fips":"AJ65","postal":"XD","scalerank":9,"country":"AZE","latitude":39.6307,"longitude":46.99,"type":"Rayon"},"id":"AZ-XVD","arcs":[[-166,-172,178,-122,-118,-34,-31,179]]},{"type":"Polygon","properties":{"name":"Hajigabul","fips":"AJ23","postal":"AB","scalerank":9,"country":"AZE","latitude":40.1106,"longitude":48.8984,"type":"Rayon"},"id":"AZ-HAC","arcs":[[180,-147,-156,181,182,183,184,185,186]]},{"type":"MultiPolygon","properties":{"name":"Abşeron","fips":"AJ01","postal":"AR","scalerank":9,"country":"AZE","latitude":40.3278,"longitude":49.3694,"type":"Rayon"},"id":"AZ-ABS","arcs":[[[-181,187,-139,-144,-148]],[[-149]]]},{"type":"Polygon","properties":{"name":"Xanlar","fips":"AJ62","postal":"XR","scalerank":9,"country":"AZE","latitude":40.4627,"longitude":46.295,"type":"Rayon"},"id":"AZ-GYG","arcs":[[-176,-21,-19,188,-93,189,-91]]},{"type":"Polygon","properties":{"name":"Kürdəmir","fips":"AJ27","postal":"KU","scalerank":9,"country":"AZE","latitude":40.2443,"longitude":48.1586,"type":"Rayon"},"id":"AZ-KUR","arcs":[[-184,190,-98,191,192,193,194,195]]},{"type":"Polygon","properties":{"name":"Zərdab","fips":"AJ71","postal":"ZR","scalerank":9,"country":"AZE","latitude":40.2395,"longitude":47.6936,"type":"Rayon"},"id":"AZ-ZAR","arcs":[[-192,-97,-127,196,197,198,199]]},{"type":"Polygon","properties":{"name":"Sabirabad","fips":"AJ46","postal":"SB","scalerank":9,"country":"AZE","latitude":39.8179,"longitude":48.8122,"type":"Rayon"},"id":"AZ-SAB","arcs":[[-183,200,-154,-104,201,-99,-191]]},{"type":"Polygon","properties":{"name":"Shirvan","fips":"AJ07","postal":"SB","scalerank":9,"country":"AZE","latitude":39.9474,"longitude":48.9257,"type":"Sahari"},"id":"AZ-SR","arcs":[[-201,-182,-155]]},{"type":"Polygon","properties":{"name":"Saatlı","fips":"AJ45","postal":"ST","scalerank":9,"country":"AZE","latitude":39.7892,"longitude":48.4591,"type":"Rayon"},"id":"AZ-SAT","arcs":[[-202,-103,-100]]},{"type":"Polygon","properties":{"name":"Bərdə","fips":"AJ11","postal":"BR","scalerank":9,"country":"AZE","latitude":40.3534,"longitude":47.2467,"type":"Rayon"},"id":"AZ-BAR","arcs":[[-170,-175,202,203,-198,204]]},{"type":"Polygon","properties":{"name":"Şəmkir","fips":"AJ51","postal":"SM","scalerank":9,"country":"AZE","latitude":40.8317,"longitude":46.0161,"type":"Rayon"},"id":"AZ-SKR","arcs":[[-189,-18,-13,-11,-94]]},{"type":"Polygon","properties":{"name":"Ağsu","fips":"AJ06","postal":"AU","scalerank":9,"country":"AZE","latitude":40.5091,"longitude":48.3659,"type":"Rayon"},"id":"AZ-AGU","arcs":[[-185,-196,205,206]]},{"type":"Polygon","properties":{"name":"Şamaxı","fips":"AJ50","postal":"SI","scalerank":9,"country":"AZE","latitude":40.3768,"longitude":48.5986,"type":"Rayon"},"id":"AZ-SMI","arcs":[[-186,-207,207,208,-133,-141,209]]},{"type":"Polygon","properties":{"name":"Quba","fips":"AJ42","postal":"QB","scalerank":9,"country":"AZE","latitude":41.1847,"longitude":48.3368,"type":"Rayon"},"id":"AZ-QBA","arcs":[[-209,210,-85,-70,-67,-134]]},{"type":"Polygon","properties":{"name":"Ucar","fips":"AJ59","postal":"UC","scalerank":9,"country":"AZE","latitude":40.3925,"longitude":47.729,"type":"Rayon"},"id":"AZ-UCA","arcs":[[-193,-200,211,212]]},{"type":"Polygon","properties":{"name":"Qobustan","fips":"AJ41","postal":"QO","scalerank":9,"country":"AZE","latitude":40.4977,"longitude":48.9623,"type":"Rayon"},"id":"AZ-QOB","arcs":[[-187,-210,-140,-188]]},{"type":"Polygon","properties":{"name":"İsmayıllı","fips":"AJ25","postal":"IS","scalerank":9,"country":"AZE","latitude":40.7896,"longitude":48.1125,"type":"Rayon"},"id":"AZ-ISM","arcs":[[-195,213,-86,-211,-208,-206]]},{"type":"Polygon","properties":{"name":"Yevlakh Rayon","fips":"AJ67","postal":"YV","scalerank":9,"country":"AZE","latitude":40.6958,"longitude":46.9101,"type":"Rayon"},"id":"AZ-YEV","arcs":[[-177,-81,-77,214,-203,-174],[215]]},{"type":"Polygon","properties":{"name":"Gəncə","fips":"AJ20","postal":"GA","scalerank":9,"country":"AZE","latitude":40.6864,"longitude":46.3206,"type":"Sahar"},"id":"AZ-GA","arcs":[[-190,-92]]},{"type":"Polygon","properties":{"name":"Mingəçevir","fips":"AJ33","postal":"MI","scalerank":9,"country":"AZE","latitude":40.7508,"longitude":46.9846,"type":"Sahar"},"id":"AZ-MI","arcs":[[-216]]},{"type":"Polygon","properties":{"name":"Göyçay","fips":"AJ22","postal":"GY","scalerank":9,"country":"AZE","latitude":40.569,"longitude":47.8172,"type":"Rayon"},"id":"AZ-GOY","arcs":[[-194,-213,216,-87,-214]]},{"type":"Polygon","properties":{"name":"Ağdaş","fips":"AJ04","postal":"AS","scalerank":9,"country":"AZE","latitude":40.568,"longitude":47.4132,"type":"Rayon"},"id":"AZ-AGS","arcs":[[-199,-204,-215,-76,-88,-217,-212]]},{"type":"Polygon","properties":{"name":"Ağcabədi","fips":"AJ02","postal":"AC","scalerank":9,"country":"AZE","latitude":39.971,"longitude":47.4145,"type":"Rayon"},"id":"AZ-AGC","arcs":[[-171,-205,-197,-126,-123,-179]]},{"type":"Polygon","properties":{"name":"Stepanakert","fips":"AJ64","postal":"XA","scalerank":9,"country":"AZE","latitude":39.8285,"longitude":46.7662,"type":"Rayon"},"id":"AZ-XA","arcs":[[-168]]},{"type":"Polygon","properties":{"name":"Naftalan","fips":"AJ34","postal":"GR","scalerank":9,"country":"AZE","latitude":40.5077,"longitude":46.8275,"type":"Sahari"},"id":"AZ-NA","arcs":[[-178]]},{"type":"Polygon","properties":{"name":"Şuşa","fips":"AJ55","postal":"SU","scalerank":9,"country":"AZE","latitude":39.7027,"longitude":46.658,"type":"Rayon"},"id":"AZ-SUS","arcs":[[-180,-30,-167]]}]},"places":{"type":"GeometryCollection","name":"AZE_places","crs":{"type":"name","properties":{"name":"urn:ogc:def:crs:OGC:1.3:CRS84"}},"geometries":[{"type":"Point","properties":{"name":"Gadabay","scalerank":10,"subregion":"G?d?b?y","latitude":40.565556,"longitude":45.816111},"id":"Q2352160","coordinates":[17801,62122]},{"type":"Point","properties":{"name":"Goranboy","scalerank":10,"subregion":"Goranboy","latitude":40.610278,"longitude":46.789722},"id":"Q2352148","coordinates":[34440,63400]},{"type":"Point","properties":{"name":"Tovuz","scalerank":10,"subregion":"Tovuz","latitude":40.992222,"longitude":45.628889},"id":"Q1026084","coordinates":[14601,74320]},{"type":"Point","properties":{"name":"Agdam","scalerank":10,"subregion":"Tovuz","latitude":40.905278,"longitude":45.556389},"id":"Q4056804","coordinates":[13362,71834]},{"type":"Point","properties":{"name":"Qabala","scalerank":10,"subregion":"Q?b?l?","latitude":40.981389,"longitude":47.845833},"id":"Q244236","coordinates":[52489,74010]},{"type":"Point","properties":{"name":"Oğuz","scalerank":10,"subregion":"Oguz","latitude":41.070833,"longitude":47.458333},"id":"Q1017630","coordinates":[45867,76567]},{"type":"Point","properties":{"name":"Ganca","scalerank":8,"subregion":"G?nc?","latitude":40.684996,"longitude":46.350028},"id":"Q131290","coordinates":[26925,65536]},{"type":"Point","properties":{"name":"Yevlax","scalerank":8,"subregion":"Yevlax","latitude":40.617197,"longitude":47.150031},"id":"Q175459","coordinates":[40598,63598]},{"type":"Point","properties":{"name":"Sumqayt","scalerank":8,"subregion":"Sumqayit","latitude":40.580015,"longitude":49.629983},"id":"Q179833","coordinates":[82981,62535]},{"type":"Point","properties":{"name":"Şirvan","scalerank":7,"subregion":"?li Bayramli","latitude":39.932303,"longitude":48.920259},"id":"Q241116","coordinates":[70852,44018]},{"type":"Point","properties":{"name":"Goycay","scalerank":7,"subregion":"Göyçay","latitude":40.653422,"longitude":47.74059},"id":"Q1822209","coordinates":[50691,64634]},{"type":"Point","properties":{"name":"Lankaran","scalerank":7,"subregion":"Astara","latitude":38.754003,"longitude":48.851064},"id":"Q228811","coordinates":[69669,10331]},{"type":"Point","properties":{"name":"Saki","scalerank":7,"subregion":"S?ki","latitude":41.192329,"longitude":47.170547},"id":"Q234783","coordinates":[40948,80041]},{"type":"Point","properties":{"name":"Stepanakert","scalerank":7,"subregion":"Xocali","latitude":39.815643,"longitude":46.751968},"id":"Q129352","coordinates":[33795,40682]},{"type":"Point","properties":{"name":"Kapan","scalerank":7,"subregion":"Z?ngilan","latitude":39.201521,"longitude":46.414986},"id":"Q31583","coordinates":[28036,23125]},{"type":"Point","properties":{"name":"Naxcivan","scalerank":7,"subregion":"Naxçivan","latitude":39.20922,"longitude":45.412205},"id":"Q230104","coordinates":[10898,23345]},{"type":"Point","properties":{"name":"Baku","scalerank":3,"subregion":"Baki","latitude":40.397218,"longitude":49.860271},"id":"Q9248","coordinates":[86917,57309]}]}},"arcs":[[[3502,76888],[674,-204],[190,-819],[-244,-659],[-620,269],[-214,349],[-107,431],[56,396],[265,237]],[[10381,74869],[-797,-503],[-389,79],[-749,390],[-806,120],[-545,661],[-350,274],[-558,736],[-283,192],[-154,-860],[-330,43],[-370,316],[-220,477],[182,919],[1690,-90],[587,542],[-22,456],[-222,406],[-895,886],[-292,120],[-1116,1],[-293,160],[-95,354],[172,603],[-632,1695],[1631,1700]],[[5525,84546],[75,-382],[795,-978],[335,-252],[745,-221],[689,-599],[404,-240],[1988,-310],[112,-1045],[-444,-1814],[110,-458],[-202,-395],[-3,-408],[173,-1365],[79,-1210]],[[7441,73627],[-396,81],[-164,658],[251,113],[489,-536],[-180,-316]],[[11421,73066],[-241,81],[-210,289],[150,925],[-104,677],[-635,-169]],[[5525,84546],[2594,2704],[548,241],[559,-37],[1142,-745],[611,-28],[565,217],[253,-57],[803,-1018],[2457,-1207],[1113,-285],[399,-201],[21,-178],[-636,-344],[-379,-597],[408,-815],[706,-764],[329,-254]],[[17018,81178],[-1190,-777],[-456,-511],[-325,-691],[-972,17],[-533,-502],[424,-1659],[-190,-996],[-511,-684],[-1030,-379],[-624,-1078],[-190,-852]],[[12028,67343],[1325,812],[450,651],[321,1178],[-31,632],[-297,199],[-403,37],[-348,142],[-270,350],[-731,1194],[-452,471],[-171,57]],[[17018,81178],[862,-666],[2536,-1159],[825,-128],[413,47],[338,157],[449,364]],[[22441,79793],[1040,-751],[960,-593]],[[24441,78449],[-537,-1146],[-700,-941],[-376,-643],[-274,-833],[-838,-246],[-1717,270],[-817,-204],[-581,-1657],[-1120,-1032],[-476,-531],[-515,-424],[-301,-690],[14,-884]],[[16203,69488],[-219,-1251],[66,-1255],[13,-1244],[-86,-1339],[-130,-874],[-414,-563],[-427,260],[-805,756],[45,780],[-348,611],[-529,286],[-635,21],[-504,415],[-90,936],[-112,316]],[[16203,69488],[630,-1011],[211,-472],[112,-583],[534,-1138],[728,-762],[641,-787],[390,-882],[-64,-633],[49,-679],[-116,-336],[116,-323]],[[19434,61882],[-1219,-958],[-297,-1823],[427,-972],[150,-569],[-187,-570],[-10,-697],[-125,-589],[-165,-316],[-9,-432],[-147,-508]],[[17852,54448],[-3994,2904],[-1012,1210],[-697,1836],[-354,299],[-237,533],[-106,915],[-298,474],[-673,759],[-244,664],[2,1217],[430,962],[668,699],[691,423]],[[12632,63163],[572,560],[232,746],[-445,322],[-498,37],[-449,-285],[-136,-583],[136,-573],[588,-224]],[[19038,53442],[-459,-20],[-727,1026]],[[19434,61882],[689,1170],[682,1251],[668,711],[820,-559]],[[22293,64455],[632,-524],[607,-588],[476,-365],[394,-420],[-1178,-2277],[441,-872],[578,-639],[570,-542],[-8,-860],[-786,-1108],[-414,-1516]],[[23605,54744],[-1195,-152],[-1184,119],[-1075,249],[-961,-478],[-152,-1040]],[[23605,54744],[1338,-623],[1431,-273]],[[26374,53848],[1907,-376],[1796,1432]],[[30077,54904],[-180,-977],[-340,-371],[-79,-1042],[339,-1958],[223,-788],[393,163],[374,381],[1023,-130],[858,-1043],[436,-444],[431,-1218],[404,-581]],[[33959,46896],[-590,-60],[-498,-364]],[[32871,46472],[-705,-162],[-623,-422],[-377,-718],[-531,-396],[-461,432],[-523,332],[-1000,-782]],[[28651,44756],[-720,-405],[-721,-343],[-763,-150],[-739,-412],[-1196,-530],[-1240,-231],[-597,-236],[-586,-89],[-427,613],[-442,464],[-339,-695],[-322,-950],[-624,-722],[-988,-945]],[[18947,40125],[-364,240],[-770,990],[-896,2370],[-370,527],[-467,297],[-1782,236],[-543,315],[-53,678],[1081,901],[2809,-598],[1194,151],[346,552],[265,1532],[379,426],[326,561],[208,701],[310,1837],[-32,504],[-438,743],[-495,475],[-617,-121]],[[29129,30567],[329,341],[-111,569],[5,473],[449,436],[153,363],[-51,471],[-209,370],[-284,239],[-275,78],[-1079,-133],[-338,76],[-256,239],[-403,705],[-242,255],[-584,55],[-1168,-773],[-593,-159],[-380,152],[-251,310],[-401,983],[-246,391],[-294,215],[-649,242],[-536,555],[-659,1726],[-468,588],[-1078,419],[-563,372]],[[28651,44756],[-237,-856],[135,-737],[393,-331],[352,-433],[592,-1583],[292,-1791]],[[30178,39025],[177,-891],[101,-894],[-282,-728],[-231,-785],[68,-763],[710,-395],[295,-338],[709,109],[528,1145],[465,206],[470,-63],[241,-621],[86,-810]],[[33515,34197],[-768,-163],[-456,-672],[295,-418],[104,-733],[-324,-605],[-473,-421]],[[31893,31185],[-674,-611],[-666,-670],[-775,121],[-649,542]],[[31183,23724],[-250,380],[-729,666],[-414,566],[-166,421],[-216,870],[-273,292],[-1229,713],[-560,562],[-235,899],[224,735],[542,435],[1252,304]],[[31893,31185],[835,-188],[719,235],[295,-279],[209,-438],[-168,-679],[-304,-571]],[[33479,29265],[-403,-506],[-110,-885],[244,-624],[326,-638],[58,-942],[265,-811],[586,-450],[562,-527]],[[35007,23882],[-692,-499],[-668,-565],[-569,-848],[-493,-930],[-695,546],[-187,2068],[-520,70]],[[35007,23882],[587,-993],[156,-795]],[[35750,22094],[-496,-635],[-439,-993],[-233,-318],[-415,-344],[-207,-422],[-287,-867],[-281,-352],[-991,-659],[-312,-342],[-228,-385],[-481,-1300],[-433,-752],[-540,-511],[-370,-195],[-309,-24],[-593,1636],[-73,334],[13,701],[321,1428],[50,800],[-96,811],[-215,940],[-413,434],[-569,420],[-437,566],[-17,879],[394,478],[599,-100],[1038,-686],[210,40],[793,735],[509,113],[-59,200]],[[6723,33532],[-369,-1531],[-308,-1686],[-560,-1171],[-757,-714]],[[4729,28430],[-609,540],[-158,343],[-408,63],[-436,410],[-63,203],[142,348],[-358,409],[-210,576],[-512,2748],[-205,618],[-360,332],[118,214],[-394,15],[-432,141]],[[844,35390],[465,1116],[710,885],[664,265],[373,579],[-3,169]],[[3053,38404],[731,701],[642,284],[581,-377],[1260,-2082],[176,-477],[74,-529],[-28,-668],[-168,-1029],[67,-417],[335,-278]],[[844,35390],[-244,184],[-238,440],[-195,1083],[-167,359],[485,275],[793,186],[747,-15],[583,181],[445,321]],[[6723,33532],[629,194],[486,583],[458,200],[106,-194]],[[8402,34315],[-531,-968],[-215,-859],[-297,-1655],[101,-754],[257,-753],[132,-798],[-202,-610],[233,-682],[-70,-637],[-791,-566],[-446,-178],[-766,353]],[[5807,26208],[-313,908],[-468,660],[-297,654]],[[8402,34315],[425,-774],[375,-916],[249,-130],[809,-97],[298,-203],[540,-713]],[[11098,31482],[-178,-312],[-549,-596],[-416,-817],[262,-251],[370,-190],[333,-1218],[1550,-997],[362,-607],[-33,-561],[154,-393],[291,63]],[[13244,25603],[188,-798],[-506,-436]],[[12926,24369],[-1066,-24],[-1079,-99],[-944,64],[-660,-666],[1181,-1126],[1487,216]],[[11845,22734],[543,-257],[480,-454],[-51,-1032],[-318,-883],[321,-940],[447,-871],[-102,-390],[-234,-372],[75,-1073]],[[13006,16462],[-432,292],[-474,164],[-751,567],[-197,304],[-31,307],[158,777],[-82,191],[-570,396],[-291,1082],[-468,490],[-114,290],[147,421],[-97,307],[-634,354],[48,513],[-209,204],[-318,-238],[-1780,765],[-448,-180],[-110,433],[-179,1424],[-367,883]],[[11098,31482],[186,-142],[387,12],[373,226],[1374,1133],[457,245],[2192,688],[396,9],[472,-235],[387,-360],[153,-361],[-52,-1214],[155,-1306],[-76,-451],[-575,-1227],[-109,-572],[98,-296]],[[16916,27631],[-886,-1394],[-424,112],[-387,529],[-494,-349],[-750,-379],[-731,-547]],[[16916,27631],[45,-135],[970,-324],[677,-830],[657,-569]],[[19265,25773],[-397,-673],[-702,-1017],[-300,-1507],[-158,-536],[-601,-1704],[-726,-1183],[-160,-993],[-41,-561],[612,-569],[508,-678],[-320,-728]],[[16980,15624],[-875,447],[-1523,21],[-973,311],[-603,59]],[[11845,22734],[726,596],[355,1039]],[[19265,25773],[975,-621],[461,-657],[3,-422],[-528,-899],[-104,-727],[155,-752],[361,-774],[445,-829],[346,-905],[890,-3239],[996,-2481],[-167,-29],[-993,327],[-1131,668],[-3601,989],[-393,202]],[[33070,98416],[117,-646],[-240,-992],[-578,-775],[-1196,-1012],[-502,-497],[-276,-803],[-203,-877],[-396,-650],[-504,-438],[-599,-249],[-588,-166],[-927,-855],[-524,-56],[-516,359],[-412,112]],[[25726,90871],[-25,207],[-418,1072],[-237,-11],[-348,-635],[-460,482],[-218,1286],[-8,1451],[161,979],[331,440],[372,51],[800,-229],[356,43],[522,446],[735,1123],[367,743],[651,1680],[367,-122],[461,24],[789,-135],[309,-229],[95,-540],[-82,-1162],[94,-486],[303,-317],[325,3],[297,240],[557,611],[351,156],[691,178],[206,196]],[[33070,98416],[391,467],[143,-5],[226,-1439],[258,-720],[1122,-1300],[293,-226],[660,-150],[279,-290],[156,-743],[231,-393],[850,-907],[422,-860],[148,-855],[268,-527]],[[38517,90468],[-679,-1199],[-1015,-282],[-1102,442],[-1134,81],[-879,-365],[-563,-1146],[-556,-1545],[-751,-1213],[-131,-803]],[[31707,84438],[-384,-32],[-270,798],[-839,631],[-1664,885],[-800,936],[-547,225],[-894,777],[-294,476],[-152,622],[-137,1115]],[[63023,95155],[1170,1897],[826,1656],[703,-597],[604,-680],[1508,-2621],[584,-741],[239,-446],[99,-694],[1167,-1651],[652,-1773],[346,-159],[288,-377],[359,-814],[552,-1022],[566,-263],[255,-481],[618,-1629]],[[73559,84760],[-1016,-79],[-891,198],[-805,94],[-775,-376],[-594,52],[-536,240],[-542,-304],[-558,-79]],[[67842,84506],[-340,370],[-834,-312],[-292,514],[-623,1582],[-439,848],[-355,857]],[[64959,88365],[-208,1190],[-322,859],[282,507],[6,565],[-420,149],[-463,49],[-308,1387],[387,1510],[-451,623],[-439,-49]],[[51937,80185],[260,30],[724,279],[402,317],[73,280],[-165,954],[50,595],[637,866],[227,968],[180,239],[443,-96],[384,276],[563,2047],[324,790],[564,439],[1971,481],[504,343],[895,974],[1477,1161],[391,536],[346,821],[720,2481],[116,189]],[[64959,88365],[-955,-696],[-1015,-401],[-1265,-816],[-1164,-1226],[-3382,-2989],[-3311,-3187]],[[53867,79050],[-1257,315],[-544,458],[-129,362]],[[44311,82026],[142,-67],[1769,-214],[373,-161],[482,-851],[310,-312],[350,-4],[605,508],[330,166],[343,-52],[895,-575]],[[49910,80464],[-45,-1083],[139,-677],[-283,-1398],[-485,-1348],[-531,-1224],[70,-673],[-63,-694],[-569,-1265],[-347,-1657],[-24,-1747]],[[47772,68698],[-1645,1107],[-1522,1482],[-288,418],[-226,514],[-196,1123],[-487,-84],[-157,266],[67,391],[-381,540],[-285,670],[208,1156],[1095,3044],[356,2701]],[[47772,68698],[-154,-752],[-602,-223]],[[47016,67723],[-674,-165],[-651,195],[-603,309],[-305,-207],[-418,4],[-426,237],[-1413,410]],[[42526,68506],[-1300,717],[-1304,683],[-1532,1089],[-1553,1001]],[[36837,71996],[-50,3252],[-1185,2425],[-772,514],[-98,1115],[108,1366],[361,1072],[312,318],[222,406],[161,518],[284,439],[660,534],[2225,1243],[1408,1211],[401,910],[223,1280]],[[41097,88599],[134,-173],[229,-823],[529,-838],[130,-338],[64,-699],[-32,-1496],[170,-655],[300,-378],[1300,-988],[390,-185]],[[38517,90468],[698,121],[656,247],[309,-104],[270,-397],[307,-1398],[340,-338]],[[36837,71996],[-1441,1001],[-1469,572]],[[33927,73569],[-80,759],[-248,654],[-175,1631],[-682,517],[-778,35],[-501,484]],[[31463,77649],[95,169],[143,919],[90,981],[167,770],[326,445],[137,369],[52,721],[345,232],[-108,416],[-537,1038],[-466,729]],[[49910,80464],[507,-326],[327,-87],[1193,134]],[[53867,79050],[437,-1700],[1352,-1003]],[[55656,76347],[-268,-394],[-192,-486],[-229,-983],[-477,107],[-240,-649],[174,-937],[416,-898],[-56,-889],[-498,-533],[-477,-169],[-73,-1288],[-661,-670],[-776,-445],[-501,-541],[-352,-836],[-894,-1487]],[[50552,65249],[-561,-342],[-608,-24],[-662,-199],[-628,-450]],[[48093,64234],[-557,413],[-415,575],[-105,2501]],[[22441,79793],[436,354],[380,110],[1285,8],[308,-136],[270,-334],[496,-784],[1007,-1156],[355,-267],[1018,-420],[280,-311],[477,-816],[307,-238],[373,21],[438,1205],[362,287],[659,-154],[336,68],[235,419]],[[33927,73569],[-1504,-2200],[-863,-1098],[-880,-1049],[-339,-250],[-147,-404],[85,-592],[-989,-1213],[-303,-1319]],[[28987,65444],[-1006,105]],[[27981,65549],[-347,1096],[-868,24]],[[26766,66669],[-572,1678],[-511,1417]],[[25683,69764],[-300,1000],[170,1021],[138,492],[212,1191],[256,556],[90,1014],[-390,962],[-1418,2449]],[[54401,37584],[-384,-593],[-210,-68],[-1300,32],[-406,-142],[-596,-648]],[[51505,36165],[159,946],[733,844],[724,549],[118,872],[-599,576],[-1166,1314],[-642,425],[107,833],[293,1020],[-322,281],[-198,443],[245,427],[343,253],[671,624],[34,1116],[-559,836],[-617,830],[723,858]],[[51552,49212],[177,-494],[513,251],[338,-133]],[[52580,48836],[332,-165],[281,-403],[221,-37],[352,303],[531,-348],[298,88],[-7,938],[243,374],[581,-433],[691,665],[264,25],[106,-797],[130,-332],[920,-733],[372,-214],[-23,-389],[552,358],[316,87],[299,-55],[412,-462],[116,-468],[347,363],[409,177],[222,-286]],[[60545,47092],[126,-263],[-32,-343],[-211,-203],[-334,-117],[-703,-794]],[[59391,45372],[-407,-966],[382,-647],[75,-653],[-504,-1300],[-144,-757],[165,-669],[284,-561],[1031,-456],[810,-938],[-125,-726],[-17,-1281],[263,-675],[404,-606]],[[61608,35137],[-1827,-1577],[-2008,1587],[-1112,1430],[-1205,1155],[-1037,112],[-18,-260]],[[60737,28123],[180,74],[-380,1036],[-481,854],[-1171,1401],[-2872,4461],[-1047,1263],[-330,294],[-235,78]],[[61608,35137],[937,1153],[967,-765],[854,-586],[706,1057]],[[65072,35996],[744,-163],[739,-414],[1677,-739]],[[68232,34680],[-367,-1474],[-89,-1479],[654,-1153],[-89,-754],[-164,-768]],[[68177,29052],[-430,-13],[-418,136],[-273,189],[-283,-5],[-342,-740],[-264,-309],[-51,-407],[-37,-1250],[-525,-644],[-562,448],[-187,1022],[-389,813],[-602,-2],[-516,-803],[-595,-647],[-354,-57],[-320,-217],[-446,-605],[-619,446],[-53,1360],[-174,356]],[[60278,17877],[89,785],[-91,361],[-515,1437],[-257,328],[-977,528],[-973,1228],[-417,768],[-230,766],[32,981],[314,813],[495,613],[576,387],[1070,279],[899,788],[444,184]],[[68177,29052],[-439,-732],[-382,-806],[-133,-1091],[132,-1094],[613,-1808],[-188,-1948]],[[67780,21573],[-343,194],[-358,-15],[-23,-458],[-159,-207],[-325,131],[-324,-108],[-14,-663],[272,-646],[-400,-381],[-485,-235],[-481,-430],[-382,-639],[-616,-865],[-852,-295]],[[63290,16956],[-475,767],[-587,498],[-808,-282],[-1142,-62]],[[58980,9164],[-261,474],[-2262,1463],[-1111,1161],[-340,816],[-40,1176],[159,325],[895,724],[105,585],[3155,729],[704,569],[294,691]],[[63290,16956],[319,-1141],[874,-170]],[[64483,15645],[-1497,-1363],[-1569,-1213],[-727,-690],[-612,-946],[-158,-554],[-84,-620],[-463,-837],[-393,-258]],[[64278,2187],[-678,1177],[-288,413],[-281,577],[-495,716],[-119,757],[-196,619],[-402,0],[-866,-530],[-526,16],[-309,384],[-268,521],[-829,869],[-31,483],[70,559],[-80,416]],[[64483,15645],[567,-892],[216,-1186]],[[65266,13567],[-476,-1207],[202,-1249],[1502,-1309],[484,-1221],[-50,-535],[34,-485],[349,-320],[297,-461],[-208,-692],[-344,-684]],[[67056,5404],[-751,-490],[-381,72],[-402,-160],[-365,-259],[-309,-395],[-124,-665],[-251,-595],[-195,-725]],[[33479,29265],[676,-342],[632,-84],[224,943],[-262,913],[369,318],[428,-371],[534,-260],[116,-325],[-25,-393],[499,-558],[577,-412],[216,-526],[430,95],[294,349],[599,79],[13,368],[-215,890],[362,736]],[[38946,30685],[617,-393],[591,-455],[327,-788],[344,-680],[960,233],[521,-425],[194,-339]],[[42500,27838],[-199,-146],[-1703,-861],[-817,-650],[-843,-1814],[-288,-1085],[-267,-487],[-1140,-838],[-207,-50],[-733,367],[-269,-10],[-284,-170]],[[48715,33700],[-308,-224],[-904,-1189],[-221,-195],[-383,-56],[-1196,-529],[-715,-511],[-558,-608],[-850,-1418],[-567,-753],[-513,-379]],[[38946,30685],[129,687],[624,195],[-183,1121],[314,640],[-131,636],[-505,-272],[-344,-381],[-384,-59],[-106,483],[280,419],[703,207],[382,631],[-551,-92],[-637,169],[296,650],[784,80],[775,483],[295,424],[324,230],[509,114],[1837,555]],[[43357,37605],[1313,455],[1326,413]],[[45996,38473],[279,-846],[568,-195],[413,-619],[373,-773],[1085,-1174],[1,-1166]],[[51505,36165],[-734,-968],[-2056,-1497]],[[45996,38473],[-570,1245],[451,441],[-218,837],[292,625],[521,278],[311,477],[823,0],[549,297],[573,209],[498,674],[262,1020],[359,2722],[1117,3214]],[[50964,50512],[459,-170],[129,-1130]],[[67056,5404],[1535,107],[1376,489]],[[69967,6000],[99,-4816],[-1104,302],[-546,5],[-383,-274],[-337,-447],[-433,-356],[-874,-414],[-876,95],[-546,698],[-466,1026],[-223,368]],[[73559,84760],[517,-1362],[461,-995],[103,-623],[212,-2479],[108,-525],[188,-221]],[[75148,78555],[-231,-53],[-1333,1363],[-1082,-497],[-1226,-3],[-566,-993],[308,-972],[14,-1082],[-174,-485],[-245,-392],[-675,-154],[-494,-443],[-251,-756],[143,-1305],[222,-1315]],[[69558,71468],[-562,-450],[-510,-620]],[[68486,70398],[-863,604],[-877,540]],[[66746,71542],[61,1270],[-90,1079],[-256,694],[330,629],[436,424],[224,731],[-617,1030],[-724,919],[453,1380],[889,993],[443,707],[-5,415],[-230,355],[-12,1159],[194,1179]],[[75148,78555],[117,-329],[290,-2046],[815,-1717],[2050,-2945],[142,-273]],[[78562,71245],[-757,-16],[-658,-149],[-803,-277],[-837,95],[-722,328],[-682,553],[-482,233],[-426,378],[-119,1059],[-379,411],[-372,-159],[-268,-383],[-195,-880],[-556,-418],[-1173,-509],[-575,-43]],[[78562,71245],[181,-515],[362,-398],[779,-613],[381,128],[322,-361],[306,-484],[342,-241],[188,-278],[-76,-626],[-298,-1065],[-101,-554],[-5,-618],[362,-716]],[[81305,64904],[-692,-174],[-149,-570]],[[80464,64160],[-342,-748],[-472,-530],[-426,-704],[-152,-1078],[-1104,-638],[-1257,-54]],[[76711,60408],[-1114,754],[-1653,2185],[-920,405],[-748,712],[-667,924],[-365,605],[-406,485],[-915,877],[-989,374]],[[68934,67729],[-665,1226],[217,1443]],[[81305,64904],[120,-254],[637,-687],[229,-136],[743,-57],[605,-315],[705,-749]],[[84344,62706],[-51,-278],[-279,-654]],[[84014,61774],[-867,-384],[-866,111],[-571,1229],[-585,870],[-661,560]],[[84344,62706],[241,-150],[856,-146],[732,-294],[403,-45],[313,82],[950,504],[409,91],[1946,-91],[143,-181],[207,-600],[630,-854],[347,-247],[1545,-423],[299,-214],[655,-1703],[709,-440],[317,-436],[251,-574],[169,-592],[176,-2360],[260,-770],[87,-591],[-55,-397],[-329,817],[-354,706],[-424,634],[-845,879],[-747,441],[-763,135],[-643,270],[-534,30],[-391,-185],[-656,0],[-300,-164],[-579,-616],[-342,0],[-477,780],[-619,190],[-448,312],[-339,-242],[-568,-651],[117,-677],[-481,-631],[-696,-465],[-1135,-328],[-995,-741],[-1308,-620],[-306,-287],[-656,-928],[-295,-265],[-189,-313],[-36,-618],[105,-1082],[-922,-461],[-171,-442],[42,-577],[234,-579],[396,-458],[204,-510],[-567,-682],[-262,-204],[-122,-292],[-88,-599],[88,-574],[255,-946],[-80,-331],[-375,-516],[-34,-273],[134,-482],[-89,-328],[-278,-264],[-105,-404],[105,-377],[-78,-375],[97,-391],[390,-698],[-21,-244],[-678,-555],[-431,-674]],[[78345,36420],[-169,864],[-73,962],[-36,1233],[245,1103]],[[78312,40582],[-16,740],[-74,718],[-490,884],[-223,906],[-306,780]],[[77203,44610],[213,781],[125,774],[559,1089],[-133,1178],[206,627],[299,546],[117,539],[-19,477],[128,488],[289,360],[502,1247],[67,1597],[-158,1576],[-17,1445],[537,701],[726,141],[858,1188],[1399,53],[507,119],[522,26],[767,-303],[816,414],[1558,488],[325,463],[-597,303],[-1441,588],[-623,-311],[-394,102],[-327,468]],[[82413,57700],[300,-573],[136,-533],[381,-115],[404,54],[379,232],[202,281],[-552,1131],[-705,-49],[-545,-428]],[[99882,54529],[-321,106],[-214,-88],[-253,270],[-167,423],[39,371],[222,-223],[490,223],[245,-336],[76,-449],[-117,-297]],[[95943,57437],[-594,-52],[85,696],[-557,968],[7,680],[208,-143],[257,109],[117,-178],[39,-597],[380,-560],[175,-388],[17,-340],[-134,-195]],[[78345,36420],[-367,-575],[-328,-716],[17,-492],[-199,-474],[-176,-630],[-208,-1240],[8,-396]],[[77092,31897],[-1419,-553],[-300,-273],[-311,-80],[-402,96],[-382,242],[-592,929],[-570,778],[-424,-532],[-173,-760],[-788,-1003],[-411,-969],[150,-1373],[-179,-352],[-320,-102],[-610,-603],[-637,160],[-764,793],[-783,757]],[[68232,34680],[1221,154],[795,-542],[83,482],[-71,648],[517,354],[354,483],[319,153],[227,285],[235,789],[186,407],[-26,311],[-258,406],[-533,650],[-59,237],[228,641],[-233,799],[0,958],[-547,1261],[-1,100]],[[70669,43256],[129,-66],[245,301]],[[71043,43491],[1185,134],[657,-581],[672,-473],[878,-182],[864,-94],[578,-161],[861,292],[309,-319],[250,-462],[1015,-1063]],[[77092,31897],[7,-376],[170,-528],[1591,-1885],[343,-697],[-91,-227],[-107,-952],[166,-615],[-367,323],[-214,458],[-106,0],[209,-891],[210,-410],[268,-244],[0,-213],[-385,120],[-459,756],[-876,754],[-569,-284],[-441,-740],[-175,-907],[13,-3129],[-60,-376]],[[76219,21834],[-268,407],[-703,230],[-666,436],[-597,229],[-530,462],[-337,924],[-500,562],[-855,-861],[-1441,-2079],[-596,-1017]],[[69726,21127],[-1036,-91],[-910,537]],[[70817,15332],[-107,613],[-261,922],[-60,765],[3,664],[-789,966],[-18,940],[141,925]],[[76219,21834],[-80,-506],[-322,-1369],[-50,-1011],[-78,-609],[-161,-508],[-1283,-1173],[-676,-343],[-474,506],[74,758],[160,217],[767,196],[263,176],[226,438],[139,571],[15,572],[-193,539],[-343,229],[-816,31],[-100,1428],[-65,328],[-304,331],[-324,110],[-730,-33],[-203,-93],[-309,-931],[-44,-679],[-207,-88],[-32,-1336],[58,-702],[278,-615],[-69,-698],[-519,-2238]],[[65266,13567],[556,-638],[599,-472],[659,177],[611,520],[547,343],[504,399],[481,551],[670,-14],[548,-193]],[[70441,14240],[-484,-769],[-617,209],[12,-1015],[114,-918],[409,-1340],[92,-4407]],[[70817,15332],[-376,-1092]],[[32871,46472],[606,-567],[700,257],[825,-542],[426,-1270],[600,-730],[700,-420],[-148,-770],[-347,-595],[-380,-846],[-336,-889]],[[35517,40100],[-362,-775],[204,-534],[863,-1209],[206,-1109],[-527,-652],[-583,-534],[-450,314],[-434,503]],[[34434,36104],[4,1095],[-36,817],[-181,983],[-316,333],[-742,242],[-778,167],[-725,-116],[-706,-454],[-776,-146]],[[33929,40237],[320,240],[243,813],[209,240],[-132,332],[-298,184],[-375,-369],[-287,-535],[44,-665],[276,-240]],[[33959,46896],[77,1032],[249,770],[440,588],[131,976],[923,539],[1074,677],[-99,456],[120,361],[402,-328],[427,-103],[396,209],[322,-517],[159,-736],[448,-180],[481,83]],[[39509,50723],[1210,129],[1226,-46]],[[41945,50806],[-704,-910],[-802,-667],[-69,-653],[510,-562],[-473,-547],[-634,-259],[-69,-1582],[-434,-395],[378,-1406],[1404,-388],[725,353],[751,147],[389,-828],[-366,-1002],[-262,-242]],[[42289,41865],[-550,182],[-542,-77],[-490,-914],[-971,300],[-933,803],[-707,448],[-739,-225],[-185,-825],[-338,-690],[-668,-338],[-649,-429]],[[30077,54904],[589,988],[947,469],[823,656],[847,481],[1276,-4],[369,275],[1015,930],[792,977]],[[36735,59676],[213,-916],[561,-922]],[[37509,57838],[224,-1330],[428,-525],[297,-699],[405,-473],[499,-233],[-78,-1804],[41,-980],[184,-1071]],[[26374,53848],[16,1982],[513,1627],[391,610],[331,690],[558,851],[623,742],[766,1136],[103,503],[-257,382],[36,1699],[-467,1374]],[[33927,73569],[-156,-1140],[110,-2335],[-142,-1154],[-300,-1107],[397,-834],[687,-130],[572,-501],[-430,-879],[-523,-921],[307,-630],[685,536],[586,-70],[437,-621],[-27,-1222],[98,-1244],[490,-198],[525,93],[143,-262],[-258,-1045],[-393,-229]],[[34981,60122],[312,158],[15,273],[-227,271],[-267,-387],[167,-315]],[[42289,41865],[440,-1258],[845,-693],[260,-1104],[-477,-1205]],[[33515,34197],[919,1907]],[[69661,55344],[156,-1055],[466,-649],[534,-640],[491,-707],[484,-930],[497,-838],[594,-221],[625,-70],[813,15],[783,-164],[415,-720],[138,-957],[711,-1664],[35,-560],[145,-475],[655,-1099]],[[71043,43491],[486,702],[27,846],[-239,374],[-644,-19],[-375,135],[-248,-102]],[[70050,45427],[-583,602],[-339,146],[-976,210],[-203,124],[-130,392],[-706,232],[-558,313],[-20,673],[-110,576],[30,366],[-377,265],[-1537,537],[-1597,29]],[[62944,49892],[144,1187],[-44,1135],[-85,976],[-314,723]],[[62645,53913],[221,871],[354,641]],[[63220,55425],[1364,-465],[701,-529],[1321,-816],[561,361],[497,721],[225,1111]],[[67889,55808],[833,-586],[939,122]],[[69661,55344],[589,-304],[875,-753],[304,442],[1229,1618],[587,246],[341,450],[260,631],[489,365],[539,129],[520,294],[486,500],[473,609],[358,837]],[[22293,64455],[626,565],[693,207],[559,-14],[460,436],[145,1000],[272,829],[112,1104],[523,1182]],[[26766,66669],[-108,-331],[-360,-690],[-255,-899],[157,-887],[655,-110],[635,767],[491,1030]],[[62944,49892],[-556,-397],[-458,-583],[-547,-409],[-441,-555],[-397,-856]],[[52580,48836],[428,396],[498,305],[389,546],[278,648],[-194,2050],[22,2126]],[[54001,54907],[432,593],[324,765],[153,1131],[88,1184]],[[54998,58580],[722,520],[-131,1516]],[[55589,60616],[701,217],[687,338]],[[56977,61171],[-342,-1179],[-150,-1225],[465,-555],[603,144],[663,-809],[979,1043],[760,75],[673,-418],[65,-2204],[508,-232],[483,-311],[376,-965],[585,-622]],[[50964,50512],[-354,116],[-121,370],[-79,764],[-200,-17],[-526,-854],[-206,175],[-304,-190],[-201,15],[-351,622],[-411,64],[-620,-570],[-263,-116],[-455,1012],[-351,958],[-212,346]],[[46310,53207],[227,413],[318,176],[134,236],[-1353,213],[-34,239]],[[45602,54484],[331,362],[548,776],[491,1500]],[[46972,57122],[995,-851],[962,-950],[552,-1015],[432,78],[416,348],[858,43],[895,-149],[949,198],[970,83]],[[70050,45427],[-57,-1240],[244,-581],[432,-350]],[[65072,35996],[-459,274],[499,543],[832,219],[785,497],[420,839],[0,988],[-221,638],[-67,733],[110,517],[7,560],[-548,914],[-722,419],[-706,610],[-736,518],[-428,36],[-538,-529],[-222,25],[-263,257],[-167,418],[238,833],[-358,398],[-408,247],[-599,-123],[-580,-352],[-901,-635],[-361,-58],[-288,590]],[[37509,57838],[829,1598],[2059,408],[593,1662],[593,531]],[[41583,62037],[358,-426],[-146,-312],[35,-633],[703,820],[303,-289],[-149,-1045],[320,-319],[347,-559],[-9,-279],[326,-72],[399,150],[129,-64],[-135,-677],[-491,-555],[926,-427],[135,-317],[-350,-641],[328,-163],[643,129],[196,-356],[-174,-491],[-49,-582],[85,49],[289,-494]],[[46310,53207],[-1445,-1404],[-1438,-1221],[-569,-243],[-945,920],[32,-453]],[[56977,61171],[323,-274],[315,308],[127,840],[298,447],[345,352],[832,681],[234,528],[1683,1035],[1020,969],[524,1185],[327,1407]],[[63005,68649],[271,-775],[530,-683],[324,-895],[-398,-1068],[14,-496],[-251,-479],[-742,-896],[-187,-1192],[483,-790],[649,-344],[1186,-49],[720,-583],[377,-233],[288,-294],[-263,-419],[-1223,-712],[-746,-767],[-112,-1381],[-705,-1168]],[[63005,68649],[538,1239],[-112,1270],[-901,802],[-754,1108]],[[61776,73068],[1383,-16],[1335,-487],[1109,-597],[1143,-426]],[[68934,67729],[-706,-527],[-637,-634],[-217,-1201],[65,-1250],[-562,-1089],[157,-365],[262,-269],[78,-1011],[187,-1206],[-28,-501],[76,-414],[210,-405],[-107,-475],[-399,-1011],[-96,-580],[-304,-334],[-483,-343],[109,-434],[667,31],[683,97]],[[61776,73068],[-1005,1137],[-1293,116],[-929,550],[-1391,1015],[-485,260],[-512,57],[-505,144]],[[46972,57122],[-258,657],[-478,347],[-248,720],[257,1875],[504,429],[645,93],[661,-270]],[[48055,60973],[287,-436],[362,-365],[707,309],[447,-319],[419,-434],[409,-226],[624,529],[346,-33],[1155,-764],[631,-376],[666,-114],[447,65],[443,-229]],[[55589,60616],[-66,1151],[421,1311],[-723,776],[-906,309],[-867,363],[-861,118],[-427,-44],[-1018,442],[-590,207]],[[42526,68506],[-478,-2316],[-224,-962],[-13,-1033],[218,-864],[-172,-884],[-274,-410]],[[37212,68268],[-536,-359],[808,-1220],[1382,713],[-344,706],[-328,14],[-342,-162],[-640,308]],[[48055,60973],[64,953],[211,856],[204,282],[74,322],[-515,848]]],"transform":{"scale":[0.00005851242994429896,0.000034978318133181924],"translate":[44.77455855300013,38.392644755000035]}}