{"type":"Topology","objects":{"subunits":{"type":"GeometryCollection","name":"BMU_subunits","crs":{"type":"name","properties":{"name":"urn:ogc:def:crs:OGC:1.3:CRS84"}},"geometries":[{"type":"MultiPolygon","properties":{"name":"Hamilton","fips":null,"postal":null,"scalerank":5,"country":"BMU","latitude":32.3454,"longitude":-64.7197,"type":null},"id":"BM-HAM","arcs":[[[0,1,2,3]],[[4,5,6,7]],[[8,9]]]},{"type":"Polygon","properties":{"name":"Smith's","fips":null,"postal":null,"scalerank":5,"country":"BMU","latitude":32.3141,"longitude":-64.7319,"type":null},"id":"BM-SMI","arcs":[[10,-8,11,12,13,-10]]},{"type":"Polygon","properties":{"name":"Devonshire","fips":null,"postal":null,"scalerank":5,"country":"BMU","latitude":32.3033,"longitude":-64.7566,"type":null},"id":"BM-DEV","arcs":[[14,-13,15,16,17]]},{"type":"Polygon","properties":{"name":"Pembroke","fips":null,"postal":null,"scalerank":5,"country":"BMU","latitude":32.2995,"longitude":-64.7997,"type":null},"id":"BM-PEM","arcs":[[18,-18,19,20]]},{"type":"Polygon","properties":{"name":"City of Hamilton","fips":null,"postal":null,"scalerank":5,"country":"BMU","latitude":32.2938,"longitude":-64.7884,"type":null},"id":"BM-HA","arcs":[[21,-21]]},{"type":"MultiPolygon","properties":{"name":"Paget","fips":null,"postal":null,"scalerank":5,"country":"BMU","latitude":32.2784,"longitude":-64.7811,"type":null},"id":"BM-PAG","arcs":[[[22,-17,23,24]],[[25,26]]]},{"type":"MultiPolygon","properties":{"name":"Warwick","fips":null,"postal":null,"scalerank":5,"country":"BMU","latitude":32.2658,"longitude":-64.8042,"type":null},"id":"BM-WAR","arcs":[[[27,-25,28,29]],[[30,-27]]]},{"type":"Polygon","properties":{"name":"Southampton","fips":null,"postal":null,"scalerank":5,"country":"BMU","latitude":32.2524,"longitude":-64.8375,"type":null},"id":"BM-SOU","arcs":[[31,-30,32,33]]},{"type":"Polygon","properties":{"name":"Sandys","fips":null,"postal":null,"scalerank":5,"country":"BMU","latitude":32.2985,"longitude":-64.8687,"type":null},"id":"BM-SAN","arcs":[[34,-34]]},{"type":"MultiPolygon","properties":{"name":"Saint George's","fips":null,"postal":null,"scalerank":5,"country":"BMU","latitude":32.3645,"longitude":-64.6998,"type":null},"id":"BM-SGE","arcs":[[[35,-6,-4]],[[36,-2],[37]]]},{"type":"Polygon","properties":{"name":"City of Saint George","fips":null,"postal":null,"scalerank":5,"country":"BMU","latitude":32.3747,"longitude":-64.6742,"type":null},"id":"BM-SG","arcs":[[-38]]}]},"places":{"type":"GeometryCollection","name":"BMU_places","crs":{"type":"name","properties":{"name":"urn:ogc:def:crs:OGC:1.3:CRS84"}},"geometries":[{"type":"Point","properties":{"name":"Hamilton","scalerank":3,"subregion":null,"latitude":32.29419,"longitude":-64.783937},"id":"Q30985","coordinates":[42815,32801]}]}},"arcs":[[[75772,62584],[-3252,4686],[-4827,-2746],[-3466,-3595],[-772,-4290],[-1992,706],[-911,3115],[2212,7638],[6027,6189]],[[68791,74287],[5842,-675]],[[74633,73612],[1301,-6066],[4228,-2205]],[[80162,65341],[-4390,-2757]],[[72194,57897],[3578,4687]],[[75772,62584],[2926,-6893]],[[78698,55691],[-3727,-3686]],[[74971,52005],[-2777,5892]],[[60127,52407],[1011,1630],[3789,-676]],[[64927,53361],[-3538,-4363],[-1262,3409]],[[64927,53361],[5316,400],[1951,4136]],[[74971,52005],[-4077,-4033],[-8778,-9514]],[[62116,38458],[-4292,10233]],[[57824,48691],[2303,3716]],[[44408,39361],[7682,5355],[4455,1910],[1279,2065]],[[62116,38458],[-7107,-6420],[-2495,-4938]],[[52514,27100],[-2580,7251],[-5056,-3748]],[[44878,30603],[-470,8758]],[[38374,29500],[-4553,2757],[-3604,7507],[1314,2547],[12877,-2950]],[[44878,30603],[-2268,-385]],[[42610,30218],[-3,4824],[-3940,-691],[-293,-4851]],[[42610,30218],[-4236,-718]],[[37296,22063],[6788,6010],[794,2530]],[[52514,27100],[-1295,-2563],[-8130,-10752],[-2107,-1546]],[[40982,12239],[-3686,9824]],[[32845,27294],[3252,-2205],[-1138,-1655],[-3577,827]],[[31382,24261],[1463,3033]],[[22276,8271],[1626,4963],[3903,551],[9491,8278]],[[40982,12239],[-8787,-6449],[-2475,-1377]],[[29720,4413],[-2320,5421],[-5124,-1563]],[[31382,24261],[-3903,-827],[-3902,552],[-1138,3860],[1301,1378],[3577,-1378],[3740,1929],[1788,-2481]],[[9592,14888],[-486,-4687],[2764,-5514],[4553,0],[5853,3584]],[[29720,4413],[-7932,-4413],[-11219,551],[-6504,6341],[-1618,5808]],[[2447,12700],[7145,2188]],[[2447,12700],[-1146,4118],[-1301,7719],[3927,-2604],[-564,5095],[1439,6834],[-2200,6941],[3089,-1654],[1463,4136],[1952,-4136],[2601,-3860],[-3740,-4686],[-1176,-8049],[-937,-2428],[2113,-2481],[7643,-1379],[0,-2205],[-6018,827]],[[80162,65341],[7154,-3860],[-8618,-5790]],[[68791,74287],[3729,8423],[6660,6522],[8877,10767],[11942,-14532],[-3252,-6341],[-163,-6342],[-4878,6066],[-5614,1996],[-1865,-3099],[-2602,4687],[-6992,-8822]],[[87680,86569],[3568,3185],[-1503,4776],[-3755,-3503],[1690,-4458]]],"transform":{"scale":[0.0000023836566698655885,0.0000014058196922394164],"translate":[-64.88599398897043,32.248077381595785]}}