{"type":"Topology","objects":{"subunits":{"type":"GeometryCollection","name":"CPV_subunits","crs":{"type":"name","properties":{"name":"urn:ogc:def:crs:OGC:1.3:CRS84"}},"geometries":[{"type":"Polygon","properties":{"name":"Brava","fips":"CV02","postal":"BR","scalerank":5,"country":"CPV","latitude":14.851,"longitude":-24.7204,"type":null},"id":"CV-BR","arcs":[[0]]},{"type":"Polygon","properties":{"name":"Santa Catarina do Fogo","fips":"CV24","postal":"CF","scalerank":5,"country":"CPV","latitude":14.9241,"longitude":-24.3301,"type":null},"id":"CV-CF","arcs":[[1,2,3]]},{"type":"Polygon","properties":{"name":"Mosteiros","fips":"CV13","postal":"MO","scalerank":5,"country":"CPV","latitude":15.0008,"longitude":-24.3541,"type":null},"id":"CV-MO","arcs":[[4,-4,5]]},{"type":"Polygon","properties":{"name":"São Filipe","fips":"CV18","postal":"SF","scalerank":5,"country":"CPV","latitude":14.9241,"longitude":-24.4403,"type":null},"id":"CV-SF","arcs":[[6,-6,-3]]},{"type":"Polygon","properties":{"name":"Tarrafal","fips":"CV20","postal":"TA","scalerank":5,"country":"CPV","latitude":15.2355,"longitude":-23.717,"type":null},"id":"CV-TA","arcs":[[7,8,9]]},{"type":"Polygon","properties":{"name":"Santa Catarina","fips":"CV15","postal":"CA","scalerank":5,"country":"CPV","latitude":15.0918,"longitude":-23.7027,"type":null},"id":"CV-CA","arcs":[[10,-10,11,12,13,14]]},{"type":"Polygon","properties":{"name":"Ribeira Grande de Santiago","fips":"CV23","postal":"RS","scalerank":5,"country":"CPV","latitude":14.9768,"longitude":-23.6404,"type":null},"id":"CV-RS","arcs":[[15,-15,16,17,18,19]]},{"type":"Polygon","properties":{"name":"Praia","fips":"CV14","postal":"PR","scalerank":5,"country":"CPV","latitude":14.9529,"longitude":-23.5159,"type":null},"id":"CV-PR","arcs":[[20,-20,21]]},{"type":"Polygon","properties":{"name":"São Domingos","fips":"CV17","postal":"SD","scalerank":5,"country":"CPV","latitude":15.0152,"longitude":-23.5254,"type":null},"id":"CV-SD","arcs":[[22,-22,-19,23,24]]},{"type":"Polygon","properties":{"name":"Santa Cruz","fips":"CV16","postal":"CR","scalerank":5,"country":"CPV","latitude":15.1157,"longitude":-23.5494,"type":null},"id":"CV-CR","arcs":[[25,-25,26,27,-13,28]]},{"type":"Polygon","properties":{"name":"São Miguel","fips":"CV19","postal":"SM","scalerank":5,"country":"CPV","latitude":15.178,"longitude":-23.6356,"type":null},"id":"CV-SM","arcs":[[29,-29,-12,-9]]},{"type":"Polygon","properties":{"name":"Maio","fips":"CV04","postal":"MA","scalerank":5,"country":"CPV","latitude":15.2115,"longitude":-23.1806,"type":null},"id":"CV-MA","arcs":[[30]]},{"type":"Polygon","properties":{"name":"Boa Vista","fips":"CV01","postal":null,"scalerank":5,"country":"CPV","latitude":16.1024,"longitude":-22.807,"type":null},"id":"CV-BV","arcs":[[31]]},{"type":"Polygon","properties":{"name":"Ribeira Brava","fips":"CV22","postal":null,"scalerank":5,"country":"CPV","latitude":16.6197,"longitude":-24.287,"type":null},"id":"CV-RB","arcs":[[32,33]]},{"type":"Polygon","properties":{"name":"Tarrafal de São Nicolau","fips":"CV27","postal":null,"scalerank":5,"country":"CPV","latitude":16.6006,"longitude":-24.3493,"type":null},"id":"CV-TS","arcs":[[34,-34]]},{"type":"Polygon","properties":{"name":"Sal","fips":"CV08","postal":null,"scalerank":5,"country":"CPV","latitude":16.7251,"longitude":-22.9363,"type":null},"id":"CV-SL","arcs":[[35]]},{"type":"MultiPolygon","properties":{"name":"São Vicente","fips":"CV11","postal":null,"scalerank":5,"country":"CPV","latitude":16.8449,"longitude":-24.972,"type":null},"id":"CV-SV","arcs":[[[36]],[[37]],[[38]]]},{"type":"Polygon","properties":{"name":"Ribeira Grande","fips":"CV07","postal":null,"scalerank":5,"country":"CPV","latitude":17.1418,"longitude":-25.1204,"type":null},"id":"CV-RG","arcs":[[39,40,41]]},{"type":"Polygon","properties":{"name":"Porto Novo","fips":"CV21","postal":null,"scalerank":5,"country":"CPV","latitude":17.0173,"longitude":-25.2258,"type":null},"id":"CV-PN","arcs":[[42,-42,43]]},{"type":"Polygon","properties":{"name":"Paul","fips":"CV05","postal":null,"scalerank":5,"country":"CPV","latitude":17.1179,"longitude":-25.0151,"type":null},"id":"CV-PA","arcs":[[44,-44,-41]]},{"type":"Polygon","properties":{"name":"São Salvador do Mundo","fips":"CV26","postal":"SS","scalerank":5,"country":"CPV","latitude":15.0678,"longitude":-23.6164,"type":null},"id":"CV-SS","arcs":[[-28,45,-17,-14]]},{"type":"Polygon","properties":{"name":"São Lourenço dos Órgãos","fips":"CV25","postal":"SO","scalerank":5,"country":"CPV","latitude":15.0439,"longitude":-23.5781,"type":null},"id":"CV-SO","arcs":[[-46,-27,-24,-18]]}]},"places":{"type":"GeometryCollection","name":"CPV_places","crs":{"type":"name","properties":{"name":"urn:ogc:def:crs:OGC:1.3:CRS84"}},"geometries":[{"type":"Point","properties":{"name":"Mindelo","scalerank":7,"subregion":null,"latitude":16.883761,"longitude":-25.000009},"id":"Q495547","coordinates":[13379,86924]},{"type":"Point","properties":{"name":"Praia","scalerank":3,"subregion":null,"latitude":14.916698,"longitude":-23.516689},"id":"Q3751","coordinates":[68442,4713]}]}},"arcs":[[[24355,4049],[417,-423],[235,-607],[105,-699],[25,-710],[-134,-661],[-313,-303],[-338,-224],[-228,-422],[-277,0],[-276,425],[-712,522],[-256,509],[-275,-289],[157,374],[54,357],[-54,355],[-157,368],[504,0],[-151,787],[438,274],[678,100],[558,267]],[[39309,6307],[212,-1018],[-28,-541],[-185,-462],[123,-461]],[[39431,3825],[-841,-948],[-1191,-134],[-775,670],[-357,939],[349,1540]],[[36616,5892],[1340,343],[1353,72]],[[34550,9240],[975,544],[663,229],[769,78],[802,-195],[521,-502],[337,-656],[478,-1403],[214,-1028]],[[36616,5892],[-1219,1921],[-847,1427]],[[39431,3825],[183,-465],[16,-479],[-249,-412],[-1296,-1302],[-1562,-664],[-1429,204],[-1264,720],[-2134,1959],[-512,794],[-218,867],[209,859],[515,1000],[661,893],[903,718],[1296,723]],[[59034,15884],[125,408],[33,491],[82,451],[184,284],[181,209],[83,225],[-125,704],[-310,813],[-412,663],[-421,258],[246,97],[769,449],[-544,240],[-240,44],[1037,881],[277,0],[21,-318],[208,-563],[695,470],[594,-395],[201,-716],[-478,-500],[496,-767],[578,-468],[1233,-736],[-280,-313]],[[63267,17795],[-531,-969],[-575,-925]],[[62161,15901],[-1439,-185],[-1109,138],[-579,30]],[[61077,6876],[-574,726],[-6,1365],[-421,329],[-603,207],[-512,279],[-23,155],[-253,959],[-393,546],[-92,336],[101,337],[529,1020],[131,381],[-32,548],[-475,1423],[355,114],[225,283]],[[62161,15901],[-41,-741],[699,-740],[657,-509],[83,-648],[287,-93],[516,516]],[[64362,13686],[224,-331],[82,-740]],[[64668,12615],[-874,-771],[-225,-228],[135,-787],[271,-583],[282,-408]],[[64257,9838],[-370,-462],[-82,-602],[-288,-185],[-781,-93],[-328,-555],[-699,-324],[-632,-741]],[[67602,4333],[-299,38],[-314,178],[-275,43],[-1232,30],[-1029,150],[-950,350],[-994,378],[-1432,1376]],[[64257,9838],[645,66]],[[64902,9904],[13,-667],[575,-556]],[[65490,8681],[453,-694],[123,-1111],[616,-323]],[[66682,6553],[135,-793],[476,-671],[309,-756]],[[70120,7096],[-238,-195],[276,-286],[-362,-653],[-227,-658],[-285,-508],[-531,-204],[-294,-41],[-580,-175],[-277,-43]],[[66682,6553],[1028,231],[945,694],[740,139],[725,-521]],[[69631,10871],[527,-1089],[145,-157],[218,-137],[226,-502],[231,-274],[195,-71],[-175,-624],[-254,-412],[-624,-509]],[[65490,8681],[740,463],[535,648],[698,648],[617,231]],[[68080,10671],[452,-277],[370,-278],[493,231],[236,524]],[[65661,15308],[274,-326],[625,-432],[558,80],[273,-454],[211,-115],[-54,-55],[236,-253],[266,-235],[160,-29],[329,55],[100,-28],[21,-131],[-45,-338],[24,-129],[992,-2047]],[[68080,10671],[-859,818],[-541,-177],[-588,291]],[[66092,11603],[56,272],[-82,416],[-1398,324]],[[64362,13686],[224,225],[1075,1397]],[[63267,17795],[642,-144],[316,-296],[563,-1010],[873,-1037]],[[82878,21220],[219,-524],[51,-659],[-39,-1126],[412,-2383],[-54,-1148],[-589,-1058],[-186,-79],[-589,-82],[-240,-100],[-138,-201],[-178,-495],[-192,-161],[-516,-53],[-491,144],[-787,480],[-872,690],[-424,492],[-227,530],[114,516],[290,517],[149,506],[-299,483],[526,341],[234,540],[-148,454],[-612,67],[209,612],[802,653],[531,1044],[-173,78],[-100,235],[515,240],[498,328],[0,-568],[405,367],[100,201],[276,-309],[-276,-259],[532,-275],[832,217],[435,-255]],[[99422,54736],[139,-72],[281,-403],[157,-450],[-221,-215],[-114,-180],[-56,-391],[-100,-395],[-618,-430],[-2028,-1770],[-1355,-793],[-689,-238],[-2136,-148],[-379,63],[-362,203],[-524,491],[-428,136],[-1346,667],[-453,466],[-231,892],[27,795],[204,745],[384,552],[550,216],[706,759],[-403,3653],[328,1295],[148,-302],[163,-221],[450,-359],[638,-332],[942,-347],[858,-109],[375,375],[284,646],[663,122],[2194,-605],[402,-177],[372,-287],[149,-298],[225,-796],[156,-163],[634,-294],[141,-706],[-127,-1595]],[[36557,78288],[525,186],[269,-40],[507,-220],[441,-316],[873,-832],[458,-253],[388,-20],[2064,345],[359,-80],[1357,-704],[300,-73],[3062,-278],[834,-357],[726,-631],[391,-243],[171,160],[0,-1439],[-418,-105],[-2623,-26],[-2866,1388],[-1535,403],[-1449,-622],[-521,-689],[-1075,-2104],[-348,-1578]],[[38447,70160],[-48,1251],[215,1765],[215,1108],[-215,1315],[-677,623],[-1045,69],[-369,554],[369,554],[-335,889]],[[38447,70160],[-323,514],[-522,1547],[-219,354],[-253,282],[-202,352],[-85,567],[-24,433],[-87,318],[-192,194],[-334,68],[-861,283],[-610,709],[-221,933],[299,954],[1744,620]],[[90250,74789],[-453,3175],[-562,1257],[-782,-435],[-154,605],[-51,816],[114,755],[343,415],[0,286],[-442,146],[-242,400],[-86,559],[29,1310],[767,660],[1770,1205],[203,-297],[670,-684],[142,-314],[-45,-179],[-239,-495],[-261,-410],[68,-115],[145,-85],[81,-145],[-104,-2478],[104,-789],[167,-279],[489,-495],[106,-239],[-40,-466],[-157,-830],[-36,-429],[-72,-231],[-343,-269],[-114,-211],[14,-222],[172,-570],[65,-65],[-246,-335],[-264,-154],[-327,-126],[-429,-242]],[[16358,87398],[-117,-179],[314,-393],[531,-393],[529,-178],[178,-228],[179,-521],[99,-581],[-54,-408],[-595,-510],[-907,-354],[-1015,-209],[-938,-67],[-237,-92],[-359,-391],[-142,-92],[-268,41],[-2336,983],[-373,228],[-295,308],[-184,413],[-483,-258],[163,891],[429,734],[542,500],[500,184],[1163,26],[476,236],[-231,568],[1046,614],[219,294],[254,0],[225,-588],[372,78],[648,510],[371,-218],[333,-397],[151,-381],[-188,-170]],[[28500,76081],[860,-182],[-215,-604],[-537,60],[-430,121],[-107,484],[429,121]],[[21787,83518],[913,-363],[484,-605],[376,-907],[698,-181],[429,302],[430,-181],[-54,-544],[-644,-302],[-752,-61],[-645,0],[-322,363],[-215,484],[-698,302],[-537,544],[0,605],[537,544]],[[4272,97496],[707,333],[876,588],[859,235],[2261,1191],[595,156],[429,-150],[429,-319],[949,34],[535,-157],[347,-291],[145,-324],[15,-953]],[[12419,97839],[-459,-274],[-590,-456],[-700,-581]],[[10670,96528],[-1473,-414],[-1694,-747],[-1216,913],[-2015,1216]],[[13874,95078],[-1056,-1242],[-169,-5],[-157,-151],[-698,-290],[-159,-142],[-319,-429],[-2238,-1143],[-1023,-1146],[-725,-1034],[-924,-716],[-1613,-216],[-1407,0],[-432,-95],[-327,-148],[-336,8],[-448,364],[-97,517],[-18,2779],[-508,973],[-129,114],[-641,132],[-243,182],[-207,701],[180,599],[915,1139],[524,388],[544,81],[483,-44],[348,14],[377,292],[901,936]],[[10670,96528],[1658,-331],[1546,-1119]],[[12419,97839],[196,-190],[873,-259],[197,-136],[115,-217],[509,-470],[137,-299],[-65,-447],[-222,-407],[-285,-336]],[[66092,11603],[-191,-1071],[-739,-601],[-260,-27]]],"transform":{"scale":[0.0000269387459474595,0.000023926834318343017],"translate":[-25.36042232999995,14.803941148000092]}}