{"type":"Topology","objects":{"subunits":{"type":"GeometryCollection","name":"DMA_subunits","crs":{"type":"name","properties":{"name":"urn:ogc:def:crs:OGC:1.3:CRS84"}},"geometries":[{"type":"Polygon","properties":{"name":"Saint Patrick","fips":"DO09","postal":"PK","scalerank":10,"country":"DMA","latitude":15.2768,"longitude":-61.3052,"type":"Parish"},"id":"DM-09","arcs":[[0,1,2,3,4]]},{"type":"Polygon","properties":{"name":"Saint David","fips":"DO03","postal":"DA","scalerank":10,"country":"DMA","latitude":15.3956,"longitude":-61.2919,"type":"Parish"},"id":"DM-03","arcs":[[5,-5,6,7,8,9]]},{"type":"Polygon","properties":{"name":"Saint Andrew","fips":"DO02","postal":"AN","scalerank":10,"country":"DMA","latitude":15.5378,"longitude":-61.3589,"type":"Parish"},"id":"DM-02","arcs":[[10,-10,11,12,13]]},{"type":"Polygon","properties":{"name":"Saint John","fips":"DO05","postal":"JN","scalerank":10,"country":"DMA","latitude":15.5767,"longitude":-61.4483,"type":"Parish"},"id":"DM-05","arcs":[[14,-14,15]]},{"type":"Polygon","properties":{"name":"Saint Peter","fips":"DO11","postal":"PR","scalerank":10,"country":"DMA","latitude":15.4986,"longitude":-61.4448,"type":"Parish"},"id":"DM-11","arcs":[[16,-16,-13,17]]},{"type":"Polygon","properties":{"name":"Saint Joseph","fips":"DO06","postal":"JH","scalerank":10,"country":"DMA","latitude":15.4355,"longitude":-61.3863,"type":"Parish"},"id":"DM-06","arcs":[[18,-18,-12,-9,19]]},{"type":"Polygon","properties":{"name":"Saint Paul","fips":"DO10","postal":"PL","scalerank":10,"country":"DMA","latitude":15.3529,"longitude":-61.3717,"type":"Parish"},"id":"DM-10","arcs":[[20,-20,-8,21]]},{"type":"Polygon","properties":{"name":"Saint George","fips":"DO04","postal":"GO","scalerank":10,"country":"DMA","latitude":15.3,"longitude":-61.3489,"type":"Parish"},"id":"DM-04","arcs":[[22,-22,-7,-4,23]]},{"type":"Polygon","properties":{"name":"Saint Luke","fips":"DO07","postal":"LU","scalerank":10,"country":"DMA","latitude":15.2483,"longitude":-61.3644,"type":"Parish"},"id":"DM-07","arcs":[[24,-24,-3,25]]},{"type":"Polygon","properties":{"name":"Saint Mark","fips":"DO08","postal":"MA","scalerank":10,"country":"DMA","latitude":15.2217,"longitude":-61.3612,"type":"Parish"},"id":"DM-08","arcs":[[26,-26,-2]]}]},"places":{"type":"GeometryCollection","name":"DMA_places","crs":{"type":"name","properties":{"name":"urn:ogc:def:crs:OGC:1.3:CRS84"}},"geometries":[{"type":"Point","properties":{"name":"Roseau","scalerank":4,"subregion":"Saint George","latitude":15.301016,"longitude":-61.387013},"id":"Q36281","coordinates":[42521,22962]}]}},"arcs":[[[97996,30288],[135,-1846],[-1222,-9107],[-8574,-8128],[-3005,-1252],[-7911,-518],[-3549,452],[-2631,-264],[-2258,-1111],[-2140,-3014],[-5823,-1366],[-1545,-1845]],[[59473,2289],[-3868,7430]],[[55605,9719],[-399,2314]],[[55206,12033],[5822,4754],[4150,1795],[3860,1088],[2868,1256],[5120,4587],[-1627,1070]],[[75399,26583],[3352,1603],[1585,443],[17660,1659]],[[91918,71312],[611,-490],[3956,-8146],[696,-8486],[-2887,-6488],[1902,-368],[1732,-772],[2071,-443],[-2615,-8447],[612,-7384]],[[75399,26583],[646,1346],[-517,2260],[-1391,682],[-6813,2392]],[[67324,33263],[54,9778],[-2976,3977]],[[64402,47018],[7180,9240]],[[71582,56258],[7903,4030],[1908,718],[1487,-108],[2415,1161],[1402,113],[2598,1238],[-194,5149],[518,1184],[2299,1569]],[[16568,99823],[4994,-107],[4720,-960],[5093,-2063],[6740,-5311],[5399,-1912],[6214,1752],[5178,546],[20713,-4408],[747,-1573],[2648,-3531],[6469,-5971],[6435,-4973]],[[71582,56258],[-2296,3115],[-6361,2757],[-4064,1095],[-2588,221],[-5865,1310],[-970,12],[-3396,-754],[-2458,-137],[-3504,998],[-5347,2859]],[[34733,67734],[-852,1980]],[[33881,69714],[-1013,4545],[-539,1142],[-2728,1208],[-366,1363],[248,6704],[-399,2506],[-2728,538],[-2134,778],[-2814,1507],[-1121,1028],[-3719,8790]],[[2053,75865],[-2053,1418],[17,2166],[2037,1507],[6978,2637],[2139,2317],[-2886,301],[-5059,989],[-3209,160],[3446,2722],[4856,9917],[8249,-176]],[[33881,69714],[-23157,6662],[-744,-42],[-6059,592],[-1868,-1061]],[[14016,61224],[-1962,1518],[-2309,753],[-2716,1215],[-917,2797],[-390,5623],[-1732,1780],[-1937,955]],[[34733,67734],[-7579,-550],[-2846,-736],[-3547,-2171],[-6745,-3053]],[[30423,43590],[-865,3659],[-1307,2035],[-9592,5114],[-1528,1921],[-798,2204],[-2317,2701]],[[64402,47018],[-13961,-3522],[-3105,47],[-7126,921],[-5143,-71],[-4644,-803]],[[39773,25866],[-588,4516],[-1902,4182],[-5908,6809],[-952,2217]],[[67324,33263],[-17207,-4772],[-1196,-1980],[-1003,-651],[-2167,-156],[-5978,162]],[[48293,13549],[162,2395],[-2292,2628],[-5281,3296],[-950,2779],[-159,1219]],[[55206,12033],[-6913,1516]],[[48455,8194],[-162,5355]],[[55605,9719],[-7169,-1824],[19,299]],[[59473,2289],[-1817,-1517],[-5059,-772],[-4686,697],[-849,1855],[1393,5642]]],"transform":{"scale":[0.0000023966711067112085,0.000004320518465184845],"translate":[-61.48892167899993,15.20180898600006]}}