{"type":"Topology","objects":{"subunits":{"type":"GeometryCollection","name":"SOM_subunits","crs":{"type":"name","properties":{"name":"urn:ogc:def:crs:OGC:1.3:CRS84"}},"geometries":[{"type":"Polygon","properties":{"name":"Nugaal","fips":"SO18","postal":"NU","scalerank":5,"country":"SOM","latitude":8.46102,"longitude":48.849,"type":"Gobolka"},"id":"SO-NU","arcs":[[0,1,2,3]]},{"type":"Polygon","properties":{"name":"Mudug","fips":"SO10","postal":"MU","scalerank":5,"country":"SOM","latitude":5.51036,"longitude":48.1009,"type":"Gobolka"},"id":"SO-MU","arcs":[[4,-4,5,6]]},{"type":"Polygon","properties":{"name":"Galguduud","fips":"SO05","postal":"GA","scalerank":5,"country":"SOM","latitude":5.09616,"longitude":46.6795,"type":"Gobolka"},"id":"SO-GA","arcs":[[7,-7,8,9,10]]},{"type":"Polygon","properties":{"name":"Hiiraan","fips":"SO07","postal":"HI","scalerank":5,"country":"SOM","latitude":4.36813,"longitude":45.4984,"type":"Gobolka"},"id":"SO-HI","arcs":[[11,-11,12,13,14]]},{"type":"Polygon","properties":{"name":"Bakool","fips":"SO01","postal":"BK","scalerank":5,"country":"SOM","latitude":4.40611,"longitude":43.835,"type":"Gobolka"},"id":"SO-BK","arcs":[[15,-15,16,17,18]]},{"type":"Polygon","properties":{"name":"Gedo","fips":"SO06","postal":"GE","scalerank":5,"country":"SOM","latitude":3.05384,"longitude":42.0524,"type":"Gobolka"},"id":"SO-GE","arcs":[[-19,19,20,21,22]]},{"type":"Polygon","properties":{"name":"Bari","fips":"SO03","postal":"BR","scalerank":5,"country":"SOM","latitude":9.95583,"longitude":50.1777,"type":"Gobolka"},"id":"SO-BR","arcs":[[23,-2]]},{"type":"Polygon","properties":{"name":"Jubbada Hoose","fips":"SO09","postal":"JH","scalerank":5,"country":"SOM","latitude":0.0078977,"longitude":41.8088,"type":"Gobolka"},"id":"SO-JH","arcs":[[-22,24,25]]},{"type":"Polygon","properties":{"name":"Jubbada Dhexe","fips":"SO08","postal":"JD","scalerank":5,"country":"SOM","latitude":1.55342,"longitude":42.4706,"type":"Gobolka"},"id":"SO-JD","arcs":[[26,-25,-21,27,28]]},{"type":"Polygon","properties":{"name":"Shabeellaha Hoose","fips":"SO02","postal":"SH","scalerank":5,"country":"SOM","latitude":1.63602,"longitude":44.185,"type":"Gobolka"},"id":"SO-SH","arcs":[[29,-29,30,-17,-14,31,32]]},{"type":"Polygon","properties":{"name":"Banaadir","fips":"SO02","postal":"BN","scalerank":5,"country":"SOM","latitude":2.12409,"longitude":45.436,"type":"Gobolka"},"id":"SO-BN","arcs":[[33,-33,34]]},{"type":"Polygon","properties":{"name":"Shabeellaha Dhexe","fips":"SO13","postal":"SD","scalerank":5,"country":"SOM","latitude":3.00561,"longitude":46.0549,"type":"Gobolka"},"id":"SO-SD","arcs":[[35,-35,-32,-13,-10]]},{"type":"Polygon","properties":{"name":"Bay","fips":"SO04","postal":"BY","scalerank":5,"country":"SOM","latitude":2.67209,"longitude":43.545,"type":"Gobolka"},"id":"SO-BY","arcs":[[-18,-31,-28,-20]]}]},"places":{"type":"GeometryCollection","name":"SOM_places","crs":{"type":"name","properties":{"name":"urn:ogc:def:crs:OGC:1.3:CRS84"}},"geometries":[{"type":"Point","properties":{"name":"Hudur","scalerank":10,"subregion":"Bakool","latitude":4.183299,"longitude":43.866703},"id":"Q1017160","coordinates":[27759,42962]},{"type":"Point","properties":{"name":"Garbahaarey","scalerank":10,"subregion":"Gedo","latitude":3.327003,"longitude":42.227002},"id":"Q1017167","coordinates":[12071,36705]},{"type":"Point","properties":{"name":"Bu'aale","scalerank":10,"subregion":"Jubbada Dhexe","latitude":1.083303,"longitude":42.583303},"id":"Q997314","coordinates":[15480,20311]},{"type":"Point","properties":{"name":"Dhuusa Mareeb","scalerank":10,"subregion":"Galguduud","latitude":5.742,"longitude":46.508005},"id":"Q634063","coordinates":[51827,52817]},{"type":"Point","properties":{"name":"Buurhakaba","scalerank":7,"subregion":"Bay","latitude":2.783718,"longitude":44.083293},"id":"Q1018270","coordinates":[29831,32735]},{"type":"Point","properties":{"name":"Luuq","scalerank":7,"subregion":"Gedo","latitude":3.800477,"longitude":42.550002},"id":"Q1878274","coordinates":[15161,40165]},{"type":"Point","properties":{"name":"Mandera","scalerank":7,"subregion":"Gedo","latitude":3.940443,"longitude":41.860018},"id":"Q949915","coordinates":[8560,41188]},{"type":"Point","properties":{"name":"Ferfer","scalerank":7,"subregion":"Hiiraan","latitude":5.085412,"longitude":45.165036},"id":"Q1017194","coordinates":[40181,49554]},{"type":"Point","properties":{"name":"Jawhar","scalerank":7,"subregion":"Shabeellaha Dhexe","latitude":2.767,"longitude":45.516591},"id":"Q646574","coordinates":[43545,32613]},{"type":"Point","properties":{"name":"Hurdiyo","scalerank":7,"subregion":"Bari","latitude":10.582027,"longitude":51.123329},"coordinates":[97189,89717]},{"type":"Point","properties":{"name":"Qardho","scalerank":7,"subregion":"Bari","latitude":9.500414,"longitude":49.165981},"id":"Q1641881","coordinates":[78461,81814]},{"type":"Point","properties":{"name":"Caluula","scalerank":7,"subregion":"Bari","latitude":11.966956,"longitude":50.750018},"id":"Q448076","coordinates":[93617,99837]},{"type":"Point","properties":{"name":"Buur Gaabo","scalerank":7,"subregion":"Jubbada Hoose","latitude":-1.20087,"longitude":41.85196},"id":"Q1018258","coordinates":[8483,3620]},{"type":"Point","properties":{"name":"Baydhabo","scalerank":6,"subregion":"Bay","latitude":3.119976,"longitude":43.649987},"id":"Q506578","coordinates":[25686,35192]},{"type":"Point","properties":{"name":"Marka","scalerank":6,"subregion":"Shabeellaha Hoose","latitude":1.77657,"longitude":44.853272},"id":"Q657428","coordinates":[36391,24962]},{"type":"Point","properties":{"name":"Mereeg","scalerank":6,"subregion":"Galguduud","latitude":3.766578,"longitude":47.299996},"id":"Q577123","coordinates":[60608,39917]},{"type":"Point","properties":{"name":"Beledweyne","scalerank":6,"subregion":"Hiiraan","latitude":4.739981,"longitude":45.200021},"id":"Q815370","coordinates":[40516,47030]},{"type":"Point","properties":{"name":"Boosaaso","scalerank":6,"subregion":"Bari","latitude":11.280021,"longitude":49.179985},"id":"Q331556","coordinates":[78595,94818]},{"type":"Point","properties":{"name":"Bandarbeyla","scalerank":6,"subregion":"Bari","latitude":9.483309,"longitude":50.816681},"id":"Q2737490","coordinates":[94255,81689]},{"type":"Point","properties":{"name":"Gaalkacyo","scalerank":6,"subregion":"Mudug","latitude":6.76996,"longitude":47.430014},"id":"Q865586","coordinates":[61852,61863]},{"type":"Point","properties":{"name":"Eyl","scalerank":6,"subregion":"Nugaal","latitude":7.983349,"longitude":49.833278},"id":"Q1019060","coordinates":[84846,70729]},{"type":"Point","properties":{"name":"Garoowe","scalerank":6,"subregion":"Nugaal","latitude":8.39999,"longitude":48.500026},"id":"Q822679","coordinates":[72090,73773]},{"type":"Point","properties":{"name":"Jamaame","scalerank":6,"subregion":"Jubbada Hoose","latitude":0.072178,"longitude":42.750558},"id":"Q1017154","coordinates":[17080,12922]},{"type":"Point","properties":{"name":"Kismaayo","scalerank":6,"subregion":"Jubbada Hoose","latitude":-0.356633,"longitude":42.518324},"id":"Q270787","coordinates":[14858,9789]},{"type":"Point","properties":{"name":"Mogadishu","scalerank":3,"subregion":"Banaadir","latitude":2.068627,"longitude":45.364732},"id":"Q2449","coordinates":[42092,27510]}]}},"arcs":[[[62832,67678],[88,66],[1396,1027],[929,685],[465,342],[465,343],[467,342],[464,343],[574,664],[573,665],[1149,1328],[574,664],[574,665],[1150,1328],[1147,1330],[576,663],[573,665],[1149,1328],[572,664],[574,665],[0,814]],[[76291,82269],[1156,53],[192,-3142],[287,-1753],[669,-950],[1052,-585],[1531,-731],[2201,-73],[957,-365],[574,-1461],[479,511],[382,438],[1148,-146],[1111,-779]],[[88030,73286],[-92,-93],[-144,-238],[-271,-646],[-211,-282],[-313,-224],[-1234,-574],[-835,-651],[-171,-210],[-112,-266],[-89,-516],[52,-87],[142,-71],[40,-164],[-25,-183],[-54,-131],[-274,-295],[-285,-235],[-84,-125],[-37,-319],[-40,-128],[-989,-1315]],[[83004,66533],[-1347,1175],[-574,73],[-2392,877],[-1531,73],[-5070,-2192],[-8941,1092],[-76,6],[-241,41]],[[52638,60170],[825,608],[624,458],[930,685],[464,343],[1396,1027],[464,342],[929,686],[930,685],[931,684],[466,343],[464,343],[465,342],[465,343],[841,619]],[[83004,66533],[-518,-689],[-632,-549],[-1469,-1564],[-706,-1057],[-439,-514],[-473,-1002],[-1179,-1887],[-25,-161],[19,-164],[90,-305],[21,-158],[-137,-639],[-337,-553],[-810,-1064],[-970,-1273],[-1476,-1733],[-470,-784],[-254,-263],[-689,-504],[-958,-1215],[-1140,-943],[-1210,-1248],[-1404,-2163],[-1025,-1138],[-1033,-846]],[[65780,44117],[-55,13],[-3204,1073],[1053,5115],[-1339,2776],[-1148,1315],[2392,3873],[-3614,629],[-3614,630],[-3613,629]],[[43563,52880],[915,763],[3080,2569],[582,457],[1167,914],[1169,913],[584,457],[583,457],[583,456],[412,304]],[[65780,44117],[-2512,-2057],[-849,-902],[-1470,-1152],[-1233,-980],[-1597,-1281]],[[58119,37745],[-40,18],[-6178,3056]],[[51901,40819],[96,2484],[-2392,1461],[-383,2265],[958,1462],[190,1023],[-1817,-365],[-3158,584],[-382,585],[-1450,2562]],[[34745,48328],[1015,-45],[496,-21],[495,-23],[496,-21],[519,-23],[277,88],[757,624],[2,0],[1571,1311],[1026,856],[1026,857],[1027,856],[111,93]],[[51901,40819],[-2965,-2339],[-11,-25],[-451,-345],[-17,5],[-861,-1973],[-6411,-365],[-1148,73],[-766,292]],[[39271,36142],[-2774,146]],[[36497,36288],[-95,3142],[287,1169],[-479,1535],[-670,2484],[-795,3710]],[[18225,44021],[281,240],[145,236],[170,510],[128,246],[64,79],[75,71],[1520,952],[1086,394],[1093,395],[1736,628],[1072,188],[1671,294],[287,50],[834,225],[351,64],[575,-25],[1984,-88],[1983,-88],[496,-21],[969,-43]],[[36497,36288],[-1148,-146]],[[35349,36142],[-478,146],[-1914,-73],[-1243,585],[286,365],[0,1315],[-191,293],[-1053,1753],[-2200,512],[-670,0],[-861,-293],[-382,-219],[-671,-950],[-956,-803],[-1627,-293],[-2774,731]],[[20615,39211],[191,1315],[-383,585],[-2009,2630],[-189,280]],[[20615,39211],[-192,-3215],[0,-1242],[-1626,-146],[-3157,219],[-575,-2412],[-287,-1242],[-1052,-4530]],[[13726,26643],[-7272,-73],[-2105,-4969]],[[4349,21601],[-4319,-216]],[[30,21385],[0,9256],[-13,984],[-17,1333],[137,202],[1114,842],[787,594],[787,595],[785,595],[496,540],[494,540],[496,541],[1297,1418],[802,877],[803,877],[801,877],[128,144],[132,81],[50,91],[-8,224],[66,142],[170,115],[675,316],[541,329],[330,127],[311,60],[828,6],[721,6],[1127,146],[2905,378],[680,89],[401,122],[357,178],[12,11]],[[76291,82269],[0,12323],[361,17],[1259,184],[1255,173],[368,122],[146,153],[97,55],[119,-36],[91,-40],[98,-3],[616,43],[183,31],[152,46],[512,224],[179,25],[138,63],[217,314],[136,122],[174,48],[218,12],[430,-10],[53,13],[153,66],[88,21],[110,3],[283,-49],[847,-68],[444,48],[282,170],[74,-7],[172,84],[110,23],[38,14],[120,66],[74,20],[70,-5],[65,-18],[61,-27],[873,19],[178,-19],[564,228],[188,131],[103,40],[342,-5],[85,30],[75,43],[106,40],[410,82],[197,96],[798,485],[439,67],[180,92],[320,272],[291,197],[114,120],[46,157],[13,165],[39,165],[62,158],[87,140],[217,214],[141,95],[133,40],[116,11],[243,89],[45,49],[42,35],[44,20],[58,-2],[84,-41],[53,-7],[205,43],[401,130],[352,55],[99,52],[248,24],[662,-338],[986,-77],[566,-345],[187,-47],[755,0],[187,-37],[324,-133],[178,-30],[222,-4],[231,-23],[194,-60],[242,-46],[-146,-237],[-105,-302],[-163,-223],[60,-345],[-75,-213],[-175,-121],[-163,-204],[-299,-213],[-317,-313],[-223,-177],[-38,-47],[10,-82],[46,-112],[10,-58],[-26,-167],[-63,-159],[-308,-505],[-47,-114],[-19,-479],[-65,-308],[128,-335],[431,-199],[416,-14],[144,-150],[-240,-157],[-212,-353],[-104,-114],[-73,-103],[-52,-160],[-31,-172],[90,-1014],[131,-1299],[215,-573],[-61,-78],[-219,-28],[-229,-53],[-53,-132],[50,-318],[-47,-149],[-95,-91],[-147,-47],[-203,-12],[-190,-48],[-168,-113],[-78,-132],[79,-107],[188,-24],[1458,219],[100,-10],[106,-21],[81,2],[33,57],[-41,81],[-90,45],[-89,32],[-42,43],[-7,167],[-26,153],[-60,149],[-102,155],[149,-101],[150,-80],[127,-96],[166,-72],[82,-44],[109,-38],[216,-121],[115,-53],[319,-54],[95,15],[96,43],[109,23],[197,-15],[166,-19],[75,-163],[134,-68],[-58,-129],[-129,-248],[-119,-32],[-119,-73],[33,-101],[-83,1],[-172,53],[-127,-5],[-154,30],[-184,-43],[-267,39],[-72,139],[-23,85],[-61,86],[-150,38],[-1443,-133],[-698,-186],[-859,-395],[-167,-235],[-79,-447],[107,-421],[-278,-553],[47,-333],[112,-231],[12,-90],[-18,-80],[-86,-108],[-125,-506],[33,-82],[-110,-154],[-63,-134],[-87,-365],[-128,-266],[-70,-80],[51,-204],[-16,-74],[-50,-136],[-70,-446],[-175,-195],[-6,-223],[72,-385],[227,-469],[34,-153],[-28,-138],[-67,-128],[-594,-733],[-191,-115],[-402,-131],[-161,-79],[-122,-115],[-285,-349],[-56,-110],[77,-466],[-7,-162],[-141,-272],[-279,-257],[-1049,-628],[-294,-230],[-234,-237],[-169,-226],[-135,-298],[-173,-605],[-149,-254],[-457,-422],[-66,-152],[29,-442],[-29,-131],[-154,-272],[-127,-131],[-147,-55],[-179,-48],[-96,-118],[-67,-147],[-86,-136],[-613,-617]],[[4349,21601],[7463,366],[2201,72],[1914,-4383],[956,-2996],[4301,46],[52,0]],[[21236,14706],[-906,-679],[-1905,-1610],[-1156,-967],[-1172,-728],[-646,-501],[-233,-253],[-23,-75],[4,-65],[-30,-46],[-231,-38],[-71,-48],[-378,-385],[-51,-121],[116,-79],[-97,-121],[-34,-29],[-4,82],[-19,34],[-43,34],[-510,-304],[-77,-72],[-63,-120],[-147,-131],[-314,-222],[-953,-877],[-33,-63],[0,-56],[-14,-40],[-86,-16],[-36,-26],[-386,-460],[-246,-194],[-142,-82],[-155,-57],[-182,-34],[-285,5],[-145,-23],[-86,-77],[184,-30],[-8,-142],[-86,-158],[-60,-73],[-136,-55],[-138,-132],[-109,-157],[-46,-135],[-42,-59],[-318,-190],[-108,-41],[-38,50],[-41,307],[10,287],[-56,125],[-58,0],[25,-111],[-28,-82],[-47,-73],[-23,-88],[13,-87],[47,-107],[13,-80],[27,-92],[64,-44],[67,-30],[37,-59],[-14,-91],[-98,-150],[-25,-85],[-51,-94],[-225,-155],[-51,-53],[-16,-95],[-45,-79],[-64,-73],[-361,-329],[-42,-75],[33,-68],[75,5],[90,40],[70,45],[-115,-193],[-217,-20],[-199,113],[-64,205],[-59,0],[11,-149],[112,-260],[8,-139],[-59,-135],[-999,-1233],[-225,-212],[-182,-215],[-360,-552],[-179,-112],[-218,-94],[-340,-434],[-193,-125],[59,0],[-248,-194],[33,604],[-34,138],[-116,161],[-849,838],[-976,962],[-1434,1415],[-490,484],[-474,467],[-243,241],[-244,240],[-242,241],[-245,241],[-8,555],[-18,1030],[-56,3173],[-14,986],[-11,599],[0,9010]],[[24454,17307],[-513,-378],[-1743,-1502],[-962,-721]],[[13726,26643],[1148,-512],[3635,-2630],[766,-438]],[[19275,23063],[2775,-3142],[765,-804],[1612,-1785],[27,-25]],[[41149,26916],[-325,-143],[-206,-34],[-105,-25],[-1897,-682],[-1625,-852],[-73,-69],[-113,-34],[-1300,-716],[-1208,-574],[-2079,-1236],[-1066,-835],[-219,-73],[-388,-182],[-118,-82],[-33,-60],[-23,-74],[-16,-143],[-39,-30],[-181,-40],[-40,-27],[-68,-73],[-678,-518],[-194,-97],[-207,-41],[-117,-72],[-441,-430],[-1079,-442],[-363,-203],[-456,-487],[-162,-71],[-133,-34],[-426,-261],[-1317,-969]],[[19275,23063],[3253,1242],[2488,950],[2870,876],[7368,2485],[-288,1900],[383,1973],[-191,438],[478,1754],[-287,1461]],[[39271,36142],[479,-1534],[2105,-2339],[-96,-3945],[575,-220]],[[42334,28104],[-1183,-1180],[-2,-8]],[[44397,28346],[-3248,-1430]],[[42334,28104],[669,147],[1373,95],[21,0]],[[58119,37745],[-257,-206],[-1710,-1524],[-1284,-872],[-711,-653],[-1320,-840],[-703,-551],[-600,-328],[-19,-61],[-45,-74],[-55,-61],[-45,-26],[-161,-46],[-96,-116],[-74,-148],[-100,-143],[-134,-76],[-372,-133],[-901,-721],[-110,-109],[-156,-225],[-91,-93],[-402,-193],[-147,-212],[-197,-124],[-1920,-945],[-1095,-471],[-1017,-448]]],"transform":{"scale":[0.00010451756952569439,0.00013685558494584972],"translate":[40.96538537600014,-1.696302992999961]}}