{"type":"Topology","objects":{"subunits":{"type":"GeometryCollection","name":"TTO_subunits","crs":{"type":"name","properties":{"name":"urn:ogc:def:crs:OGC:1.3:CRS84"}},"geometries":[{"type":"Polygon","properties":{"name":"Tunapuna/Piarco","fips":"TD23","postal":"TP","scalerank":9,"country":"TTO","latitude":10.6903,"longitude":-61.3254,"type":"Region"},"id":"TT-TUP","arcs":[[0,1,2,3,4],[5]]},{"type":"Polygon","properties":{"name":"San Juan-Laventille","fips":"TD20","postal":"SL","scalerank":9,"country":"TTO","latitude":10.613,"longitude":-61.4498,"type":"Region"},"id":"TT-SJL","arcs":[[6,-5,7,8,9,10]]},{"type":"Polygon","properties":{"name":"Diego Martin","fips":"TD15","postal":"DM","scalerank":9,"country":"TTO","latitude":10.7128,"longitude":-61.5778,"type":"Region"},"id":"TT-DMN","arcs":[[11,-11,12]]},{"type":"Polygon","properties":{"name":"Port of Spain","fips":"TD05","postal":"PS","scalerank":9,"country":"TTO","latitude":10.6647,"longitude":-61.5204,"type":"City"},"id":"TT-POS","arcs":[[13,-13,-10]]},{"type":"Polygon","properties":{"name":"Chaguanas","fips":"TD13","postal":"CH","scalerank":9,"country":"TTO","latitude":10.5359,"longitude":-61.4134,"type":"City"},"id":"TT-CHA","arcs":[[14,-8,-4,15]]},{"type":"Polygon","properties":{"name":"Couva-Tabaquite-Talparo","fips":"TD14","postal":"CT","scalerank":9,"country":"TTO","latitude":10.4519,"longitude":-61.3425,"type":"Region"},"id":"TT-CTT","arcs":[[16,-16,-3,17,18,19,20]]},{"type":"Polygon","properties":{"name":"San Fernando","fips":"TD10","postal":"SF","scalerank":9,"country":"TTO","latitude":10.2772,"longitude":-61.4589,"type":"City"},"id":"TT-SFO","arcs":[[21,-21,22,23]]},{"type":"Polygon","properties":{"name":"Penal-Debe","fips":"TD17","postal":"PD","scalerank":9,"country":"TTO","latitude":10.1459,"longitude":-61.4269,"type":"Region"},"id":"TT-PED","arcs":[[24,-24,25,26,27]]},{"type":"Polygon","properties":{"name":"Siparia","fips":"TD22","postal":"SI","scalerank":9,"country":"TTO","latitude":10.118,"longitude":-61.6987,"type":"Region"},"id":"TT-SIP","arcs":[[28,-28,29,30]]},{"type":"Polygon","properties":{"name":"Point Fortin","fips":"TD18","postal":"PF","scalerank":9,"country":"TTO","latitude":10.1669,"longitude":-61.6685,"type":"City"},"id":"TT-PTF","arcs":[[31,-31]]},{"type":"Polygon","properties":{"name":"Princes Town","fips":"TD19","postal":"PT","scalerank":9,"country":"TTO","latitude":10.2039,"longitude":-61.3096,"type":"Region"},"id":"TT-PRT","arcs":[[32,-26,-23,-20,33]]},{"type":"Polygon","properties":{"name":"Rio Claro-Mayaro","fips":"TD16","postal":"MR","scalerank":9,"country":"TTO","latitude":10.2814,"longitude":-61.1024,"type":"Region"},"id":"TT-RCM","arcs":[[34,-34,-19,35]]},{"type":"Polygon","properties":{"name":"Sangre Grande","fips":"TD21","postal":"SN","scalerank":9,"country":"TTO","latitude":10.6838,"longitude":-61.1277,"type":"Region"},"id":"TT-SGE","arcs":[[36,-36,-18,-2]]},{"type":"Polygon","properties":{"name":"Eastern Tobago","fips":"TD11","postal":null,"scalerank":9,"country":"TTO","latitude":11.2899,"longitude":-60.6001,"type":"Region"},"id":"TT-ETO","arcs":[[37,38]]},{"type":"Polygon","properties":{"name":"Western Tobago","fips":"TD11","postal":null,"scalerank":9,"country":"TTO","latitude":11.1959,"longitude":-60.7709,"type":"Region"},"id":"TT-WTO","arcs":[[39,-39]]},{"type":"Polygon","properties":{"name":"Arima","fips":"TD01","postal":null,"scalerank":9,"country":"TTO","latitude":10.6284,"longitude":-61.2804,"type":"City"},"id":"TT-ARI","arcs":[[-6]]}]},"places":{"type":"GeometryCollection","name":"TTO_places","crs":{"type":"name","properties":{"name":"urn:ogc:def:crs:OGC:1.3:CRS84"}},"geometries":[{"type":"Point","properties":{"name":"San Fernando","scalerank":8,"subregion":"San Fernando","latitude":10.280462,"longitude":-61.459377},"id":"Q1023712","coordinates":[33365,18212]},{"type":"Point","properties":{"name":"Port-of-Spain","scalerank":4,"subregion":"Port of Spain","latitude":10.651997,"longitude":-61.517031},"id":"Q39178","coordinates":[29266,46595]}]}},"arcs":[[[40955,58215],[249,22],[3766,-485],[8251,-37],[604,488]],[[53825,58203],[283,-237],[685,-1058],[72,-679],[-17,-679],[-421,-419],[-608,-319],[-464,-344],[-1161,-1386],[-404,-319],[-647,-214],[-2013,-213],[-136,-300],[667,-268],[446,-32],[305,-158],[376,-347],[70,-640],[-27,-1350],[-303,-1156],[231,-1260],[270,-545],[533,-738],[149,-470],[1,-544],[-115,-557],[-447,-596],[-297,-482],[-1832,-923]],[[49021,41970],[-2035,-683],[-3069,-139],[-1001,-240],[-880,-423],[-893,-51],[-693,154],[-347,0],[-310,-600]],[[39793,39988],[-2901,59]],[[36892,40047],[-852,5831],[24,1903],[-507,3355],[149,1327],[397,762],[608,193],[1897,-288],[456,47],[523,154],[518,-31],[1233,-312],[430,142],[450,572],[79,853],[-579,1263],[-535,1911],[-228,486]],[[46507,43185],[551,182],[110,296],[-18,462],[-311,1074],[-101,529],[-1006,1018],[-81,-683],[93,-402],[-161,-285],[-4,-544],[-79,-431],[-382,-434],[-107,-284],[215,-257],[654,-225],[627,-16]],[[31181,54435],[309,-3],[891,432],[544,765],[365,314],[364,-942],[529,0],[0,1044],[437,0],[49,-385],[484,-659],[-533,-569],[590,149],[417,355],[451,541],[1371,46],[133,-46],[585,562],[1345,1673],[451,416],[992,87]],[[36892,40047],[-2222,-99],[-1393,-2053],[-115,0]],[[33162,37895],[6,1533],[-720,2803],[-1704,2295],[524,469],[-486,351]],[[30782,45346],[291,1602],[-395,900],[-1012,568]],[[29666,48416],[1260,2341],[404,1769],[-149,1909]],[[26988,47746],[-2029,982],[-1522,342],[-3625,261],[-451,149],[-350,411],[-448,889],[3694,2704],[960,426],[2913,-261],[3272,811],[1779,-25]],[[29666,48416],[-1045,166],[-588,-47],[-759,-652],[-286,-137]],[[30782,45346],[-2352,1700],[-1442,700]],[[33158,36711],[4,1184]],[[39793,39988],[318,-1623],[-485,-1764],[-87,-762],[-496,-478],[-1816,-138],[-864,284],[-538,474],[-676,138],[-527,355],[-467,127],[-997,110]],[[33346,20446],[-114,710],[-359,1237],[-191,1433],[-130,414],[-622,553],[-220,336],[-29,416],[437,165],[122,224],[-70,594],[-414,1495],[-266,522],[-156,1100],[405,1508],[943,2369],[475,2903],[1,286]],[[49021,41970],[787,-707],[292,-817],[207,-3222],[222,-619],[552,-616],[-15,-1212],[-586,-1717],[42,-660],[105,-335],[1381,-415]],[[52008,31650],[-951,-1855],[-329,-1516],[-426,-4374],[-575,-2085],[-1020,-1571]],[[48707,20249],[-632,632],[-867,391],[-575,185],[-608,300],[-907,253],[-1240,221],[-2035,-40],[-2383,-481],[-2430,-1082],[-1423,-158]],[[35607,20470],[-1887,-130],[-374,106]],[[31194,15832],[568,487],[859,1039],[547,988],[269,1526],[-91,574]],[[35607,20470],[-970,-3892]],[[34637,16578],[-3369,-845],[-74,99]],[[28999,15133],[1010,39],[804,333],[381,327]],[[34637,16578],[3543,-1635],[781,-758],[556,-789],[-444,-11046]],[[39073,2350],[-2729,255],[-6086,-522],[-76,15]],[[30182,2098],[353,2838],[257,833],[362,647],[889,1110],[333,738],[288,1397],[31,1315],[-196,545],[-364,706],[-889,592],[-1938,1809],[-309,505]],[[20573,12835],[38,34],[-61,2303],[903,504],[1076,19],[3673,-672],[2797,110]],[[30182,2098],[-2840,507],[-665,-174],[-2025,-864],[-796,-87],[-1397,-355],[-720,-87],[-1004,165],[-706,395],[-648,510],[-818,497],[-1322,416],[-1458,181],[-6159,12],[-1686,-211],[-1290,-659],[-1042,-861],[-1383,-874],[-1455,-590],[-1241,-19],[-1527,1100],[694,1036],[2291,1277],[339,286],[781,255],[2305,460],[469,482],[740,1147],[1111,895],[1189,616],[5482,1734],[333,171]],[[15734,9459],[231,-335],[861,-1460],[678,63],[808,292],[1514,1350],[432,640],[286,517],[639,947],[83,407],[-191,371],[-502,584]],[[15734,9459],[2725,1386],[2114,1990]],[[53393,2530],[-994,-105],[-4362,752],[-1565,-146],[-4527,-948],[-2872,267]],[[48707,20249],[513,-1713],[457,-340],[263,-647],[599,-134],[663,-869],[1174,-2179],[1017,-11837]],[[63290,32207],[732,-4212],[365,-1045],[474,-970],[1273,-2001],[2641,-1980],[-2057,-2350],[-894,-3951],[-37,-4464],[520,-3886],[-1527,355],[-1713,-554],[-1617,-1056],[-1258,-1141],[-1255,-892],[-1615,-641],[-3196,-814],[-733,-75]],[[52008,31650],[7239,1007],[4043,-450]],[[53825,58203],[1189,957],[4145,532],[1282,575],[9219,1094],[2953,-622],[-3020,-5626],[-3731,-4899],[-1322,255],[-842,-1464],[-382,-2285],[78,-2194],[1380,-4645],[287,-2262],[-2057,-1875],[43,-2145],[243,-1392]],[[90570,96708],[1344,524],[2007,448],[836,504],[865,171],[1131,-706],[524,68],[1354,1698],[769,584],[530,-566],[69,-1896],[-246,-2344],[-532,-1653],[-793,199],[-439,0],[-437,-1147],[-625,-128],[-709,255],[-700,-19],[-139,-335],[-1064,-1505],[-252,-59],[-1649,-1079],[-518,-441],[-786,-504]],[[91110,88777],[-1240,1103],[-1028,947],[-1793,745],[699,726],[1975,1369],[1396,1815],[-549,1226]],[[91110,88777],[-900,10],[-859,186],[-671,28],[-4299,-2294],[-1261,-317],[-1915,-1753],[-1201,-513],[-503,1222],[-1067,-569],[-990,177],[-581,752],[165,1160],[601,320],[987,168],[920,391],[402,995],[706,989],[6017,4177],[1284,1343],[735,578],[902,495],[988,386]]],"transform":{"scale":[0.00001406630277302744,0.000013090137421374302],"translate":[-61.92870032499991,10.04205963700008]}}