{"type":"Topology","objects":{"subunits":{"type":"GeometryCollection","name":"VCT_subunits","crs":{"type":"name","properties":{"name":"urn:ogc:def:crs:OGC:1.3:CRS84"}},"geometries":[{"type":"MultiPolygon","properties":{"name":"Grenadines","fips":"VC06","postal":"GT","scalerank":10,"country":"VCT","latitude":13.0161,"longitude":-61.229,"type":"Parish"},"id":"VC-06","arcs":[[[0]],[[1]],[[2]],[[3]]]},{"type":"Polygon","properties":{"name":"Saint Andrew","fips":"VC02","postal":"AN","scalerank":10,"country":"VCT","latitude":13.1977,"longitude":-61.2287,"type":"Parish"},"id":"VC-02","arcs":[[4,5,6,7]]},{"type":"Polygon","properties":{"name":"Saint George","fips":"VC04","postal":"GE","scalerank":10,"country":"VCT","latitude":13.1695,"longitude":-61.1899,"type":"Parish"},"id":"VC-04","arcs":[[8,-8,9]]},{"type":"Polygon","properties":{"name":"Charlotte","fips":"VC01","postal":"CH","scalerank":10,"country":"VCT","latitude":13.2825,"longitude":-61.1475,"type":"Parish"},"id":"VC-01","arcs":[[10,-10,-7,11,12]]},{"type":"Polygon","properties":{"name":"Saint David","fips":"VC03","postal":"DA","scalerank":10,"country":"VCT","latitude":13.3142,"longitude":-61.204,"type":"Parish"},"id":"VC-03","arcs":[[13,-13,14]]},{"type":"Polygon","properties":{"name":"Saint Patrick","fips":"VC05","postal":"PA","scalerank":10,"country":"VCT","latitude":13.2313,"longitude":-61.2534,"type":"Parish"},"id":"VC-05","arcs":[[15,-15,-12,-6]]}]},"places":{"type":"GeometryCollection","name":"VCT_places","crs":{"type":"name","properties":{"name":"urn:ogc:def:crs:OGC:1.3:CRS84"}},"geometries":[{"type":"Point","properties":{"name":"Kingstown","scalerank":4,"subregion":null,"latitude":13.148279,"longitude":-61.212062},"id":"Q41474","coordinates":[71328,71718]}]}},"arcs":[[[79139,56773],[-4264,-1708],[-5391,-3784],[-4760,-1371],[2217,0],[-2217,-936],[-1527,921],[-2362,578],[-3016,250],[-3452,-31],[0,936],[4433,-572],[6760,557],[12,1013],[-1975,925],[-908,645],[2471,992],[8286,2209],[3464,1177],[969,-1376],[1260,-425]],[[5488,2859],[3585,-931],[812,-1084],[-1817,-506],[-3126,-338],[-3779,118],[-1163,675],[1236,644],[302,527],[-629,460],[363,333],[2156,358],[2060,-256]],[[41805,18682],[920,-470],[582,-1151],[-1587,-874],[-1733,-721],[-847,-1100],[-1648,-737],[-3040,-66],[-2678,430],[727,383],[3392,307],[1575,829],[-557,1114],[145,1228],[2689,747],[2060,81]],[[79805,35580],[2556,1918],[2447,-215],[-2568,-2486],[-1199,-705],[-957,-67],[-279,1555]],[[66068,72675],[-9957,2909]],[[56111,75584],[3824,1691],[6050,1812],[5465,2472],[2342,412],[3903,247]],[[77695,82218],[-390,-2059],[2199,-783]],[[79504,79376],[-1809,-1525],[-6636,-3048],[-4991,-2128]],[[96544,77009],[-736,-1374],[-8734,-5135],[-5318,-1703],[-7438,1468],[-8250,2410]],[[79504,79376],[1509,-536],[3903,-1153],[3513,247],[4489,-330],[3626,-595]],[[85909,99897],[5962,-399],[2144,-338],[1187,-844],[1865,-1836],[2932,-5595],[-145,-7702],[-3310,-6174]],[[77695,82218],[1171,1236],[2147,1731]],[[81013,85185],[3903,-330],[781,1648],[390,2389],[-390,2060],[-195,1731],[975,2307],[2538,165],[-196,1647],[-2927,495],[17,2600]],[[56994,85563],[1624,1323],[-775,476],[-1441,1242],[8031,537],[3440,2839],[2048,3621],[3852,2905],[3840,1022],[3573,430],[3198,41],[1525,-102]],[[81013,85185],[-3903,1648],[-4099,-1484],[-3963,-1115],[-6576,621],[-5478,708]],[[56111,75584],[-2387,3692],[800,4276],[2470,2011]]],"transform":{"scale":[0.000003359001690016984,0.000007956215632156392],"translate":[-61.459828253999945,12.585150458000044]}}