{
    "id": "TOPOLIB-48",
    "name": "HEAnet",
    "short_name": "IE-17",
    "nodes": [
        {
            "id": 0,
            "name": "Dublin",
            "longitude": -6.2603097,
            "latitude": 53.3498053,
            "pop": 1024027,
            "DC": 110,
            "IXP": 3
        },
        {
            "id": 1,
            "name": "Parkwest Drive",
            "longitude": -6.370125,
            "latitude": 53.3324297,
            "pop": 139375,
            "DC": 0,
            "IXP": 0
        },
        {
            "id": 2,
            "name": "Blanchardstown",
            "longitude": -6.377579,
            "latitude": 53.3839704,
            "pop": 278749,
            "DC": 0,
            "IXP": 0
        },
        {
            "id": 3,
            "name": "Citywest Business Campus",
            "longitude": -6.4234049,
            "latitude": 53.2923771,
            "pop": 139374,
            "DC": 0,
            "IXP": 0
        },
        {
            "id": 4,
            "name": "Carlow",
            "longitude": -6.9246074,
            "latitude": 52.8359963,
            "pop": 24272,
            "DC": 1,
            "IXP": 0
        },
        {
            "id": 5,
            "name": "Wexford",
            "longitude": -6.4633381,
            "latitude": 52.336916,
            "pop": 19913,
            "DC": 0,
            "IXP": 0
        },
        {
            "id": 6,
            "name": "Waterford",
            "longitude": -7.1115235,
            "latitude": 52.2572983,
            "pop": 53504,
            "DC": 0,
            "IXP": 0
        },
        {
            "id": 7,
            "name": "Cork",
            "longitude": -8.4756035,
            "latitude": 51.8985143,
            "pop": 190384,
            "DC": 1,
            "IXP": 1
        },
        {
            "id": 8,
            "name": "Tralee",
            "longitude": -9.6999325,
            "latitude": 52.2713096,
            "pop": 22941,
            "DC": 0,
            "IXP": 0
        },
        {
            "id": 9,
            "name": "Limerick",
            "longitude": -8.6267299,
            "latitude": 52.663839,
            "pop": 94192,
            "DC": 1,
            "IXP": 0
        },
        {
            "id": 10,
            "name": "Tipperary",
            "longitude": -8.1618004,
            "latitude": 52.4736499,
            "pop": 4979,
            "DC": 0,
            "IXP": 0
        },
        {
            "id": 11,
            "name": "Galway",
            "longitude": -9.0512662,
            "latitude": 53.274001,
            "pop": 83456,
            "DC": 2,
            "IXP": 0
        },
        {
            "id": 12,
            "name": "Athlone",
            "longitude": -7.9402775,
            "latitude": 53.4239226,
            "pop": 21351,
            "DC": 0,
            "IXP": 0
        },
        {
            "id": 13,
            "name": "Castlebar",
            "longitude": -9.2934089,
            "latitude": 53.8517129,
            "pop": 12874,
            "DC": 0,
            "IXP": 0
        },
        {
            "id": 14,
            "name": "Sligo",
            "longitude": -8.4715258,
            "latitude": 54.2775969,
            "pop": 19199,
            "DC": 0,
            "IXP": 0
        },
        {
            "id": 15,
            "name": "Letterkenny",
            "longitude": -7.7287972,
            "latitude": 54.9533201,
            "pop": 19274,
            "DC": 1,
            "IXP": 0
        },
        {
            "id": 16,
            "name": "Dundalk",
            "longitude": -6.3883001,
            "latitude": 54.0024774,
            "pop": 39004,
            "DC": 0,
            "IXP": 0
        }
    ],
    "links": [
        {
            "id": 0,
            "src": 11,
            "dst": 13,
            "length": 85.97
        },
        {
            "id": 1,
            "src": 13,
            "dst": 11,
            "length": 85.97
        },
        {
            "id": 2,
            "src": 12,
            "dst": 11,
            "length": 99.55
        },
        {
            "id": 3,
            "src": 11,
            "dst": 12,
            "length": 99.55
        },
        {
            "id": 4,
            "src": 14,
            "dst": 13,
            "length": 93.06
        },
        {
            "id": 5,
            "src": 13,
            "dst": 14,
            "length": 93.06
        },
        {
            "id": 6,
            "src": 15,
            "dst": 14,
            "length": 114.86
        },
        {
            "id": 7,
            "src": 14,
            "dst": 15,
            "length": 114.86
        },
        {
            "id": 8,
            "src": 15,
            "dst": 16,
            "length": 178.26
        },
        {
            "id": 9,
            "src": 16,
            "dst": 15,
            "length": 178.26
        },
        {
            "id": 10,
            "src": 1,
            "dst": 12,
            "length": 136.08
        },
        {
            "id": 11,
            "src": 12,
            "dst": 1,
            "length": 136.08
        },
        {
            "id": 12,
            "src": 0,
            "dst": 1,
            "length": 10.0
        },
        {
            "id": 13,
            "src": 1,
            "dst": 0,
            "length": 10.0
        },
        {
            "id": 14,
            "src": 3,
            "dst": 0,
            "length": 16.33
        },
        {
            "id": 15,
            "src": 0,
            "dst": 3,
            "length": 16.33
        },
        {
            "id": 16,
            "src": 0,
            "dst": 2,
            "length": 11.6
        },
        {
            "id": 17,
            "src": 2,
            "dst": 0,
            "length": 11.6
        },
        {
            "id": 18,
            "src": 0,
            "dst": 16,
            "length": 95.15
        },
        {
            "id": 19,
            "src": 16,
            "dst": 0,
            "length": 95.15
        },
        {
            "id": 20,
            "src": 11,
            "dst": 10,
            "length": 140.05
        },
        {
            "id": 21,
            "src": 10,
            "dst": 11,
            "length": 140.05
        },
        {
            "id": 22,
            "src": 10,
            "dst": 9,
            "length": 48.98
        },
        {
            "id": 23,
            "src": 9,
            "dst": 10,
            "length": 48.98
        },
        {
            "id": 24,
            "src": 8,
            "dst": 9,
            "length": 110.38
        },
        {
            "id": 25,
            "src": 9,
            "dst": 8,
            "length": 110.38
        },
        {
            "id": 26,
            "src": 7,
            "dst": 8,
            "length": 121.28
        },
        {
            "id": 27,
            "src": 8,
            "dst": 7,
            "length": 121.28
        },
        {
            "id": 28,
            "src": 6,
            "dst": 7,
            "length": 132.6
        },
        {
            "id": 29,
            "src": 7,
            "dst": 6,
            "length": 132.6
        },
        {
            "id": 30,
            "src": 5,
            "dst": 6,
            "length": 58.46
        },
        {
            "id": 31,
            "src": 6,
            "dst": 5,
            "length": 58.46
        },
        {
            "id": 32,
            "src": 5,
            "dst": 4,
            "length": 83.79
        },
        {
            "id": 33,
            "src": 4,
            "dst": 5,
            "length": 83.79
        },
        {
            "id": 34,
            "src": 4,
            "dst": 0,
            "length": 94.77
        },
        {
            "id": 35,
            "src": 0,
            "dst": 4,
            "length": 94.77
        }
    ],
    "Source": {
        "url": "https://www.heanet.ie/wp-content/uploads/2019/03/HEAnet-Infrastructure-with-title_Page_1-e1554998181125.jpg",
        "paper": "",
        "doi": ""
    },
    "capacity": {
        "pop": 0.015,
        "DC": 400,
        "IXP": 2857
    }
}