{
    "id": "TOPOLIB-3",
    "name": "Bell Canada",
    "short_name": "NA-39",
    "nodes": [
        {
            "id": 0,
            "name": "San Juan de Terranova",
            "longitude": -52.7452511,
            "latitude": 47.5556097,
            "pop": 110525,
            "DC": 0,
            "IXP": 0
        },
        {
            "id": 1,
            "name": "New Glasgow",
            "longitude": -62.6451868,
            "latitude": 45.5871993,
            "pop": 18665,
            "DC": 0,
            "IXP": 0
        },
        {
            "id": 2,
            "name": "Halifax",
            "longitude": -63.5923256,
            "latitude": 44.6508608,
            "pop": 471559,
            "DC": 5,
            "IXP": 1
        },
        {
            "id": 3,
            "name": "Charlottetown",
            "longitude": -63.1310704,
            "latitude": 46.23824,
            "pop": 38809,
            "DC": 2,
            "IXP": 1
        },
        {
            "id": 4,
            "name": "Moncton",
            "longitude": -64.7782313,
            "latitude": 46.0878165,
            "pop": 86106,
            "DC": 1,
            "IXP": 1
        },
        {
            "id": 5,
            "name": "Saint John",
            "longitude": -66.0633081,
            "latitude": 45.2733153,
            "pop": 71808,
            "DC": 3,
            "IXP": 0
        },
        {
            "id": 6,
            "name": "Fredericton",
            "longitude": -66.6431151,
            "latitude": 45.9635895,
            "pop": 63116,
            "DC": 0,
            "IXP": 0
        },
        {
            "id": 7,
            "name": "Quebec",
            "longitude": -71.2074596,
            "latitude": 46.8130816,
            "pop": 531902,
            "DC": 11,
            "IXP": 0
        },
        {
            "id": 8,
            "name": "Saguenay",
            "longitude": -71.0600102,
            "latitude": 48.4276054,
            "pop": 143692,
            "DC": 0,
            "IXP": 0
        },
        {
            "id": 9,
            "name": "Rimouski",
            "longitude": -68.5349704,
            "latitude": 48.4389803,
            "pop": 42240,
            "DC": 0,
            "IXP": 0
        },
        {
            "id": 10,
            "name": "Baie-Comeau",
            "longitude": -68.1503944,
            "latitude": 49.2212971,
            "pop": 21536,
            "DC": 1,
            "IXP": 0
        },
        {
            "id": 11,
            "name": "Sept-Iles",
            "longitude": -66.3757921,
            "latitude": 50.2132968,
            "pop": 28534,
            "DC": 0,
            "IXP": 0
        },
        {
            "id": 12,
            "name": "Sherbrooke",
            "longitude": -71.893674,
            "latitude": 45.4042669,
            "pop": 129447,
            "DC": 0,
            "IXP": 0
        },
        {
            "id": 13,
            "name": "Montreal",
            "longitude": -73.5673919,
            "latitude": 45.5018869,
            "pop": 1762949,
            "DC": 58,
            "IXP": 3
        },
        {
            "id": 14,
            "name": "Ottawa",
            "longitude": -75.7003397,
            "latitude": 45.4200572,
            "pop": 1017449,
            "DC": 5,
            "IXP": 3
        },
        {
            "id": 15,
            "name": "Toronto",
            "longitude": -79.3831843,
            "latitude": 43.653226,
            "pop": 2794356,
            "DC": 86,
            "IXP": 6
        },
        {
            "id": 16,
            "name": "New York",
            "longitude": -74.0059728,
            "latitude": 40.7127753,
            "pop": 8804190,
            "DC": 70,
            "IXP": 11
        },
        {
            "id": 17,
            "name": "Buffalo",
            "longitude": -78.8788896,
            "latitude": 42.8869004,
            "pop": 258071,
            "DC": 22,
            "IXP": 0
        },
        {
            "id": 18,
            "name": "Gran Sudbury",
            "longitude": -80.993029,
            "latitude": 46.4917317,
            "pop": 166004,
            "DC": 0,
            "IXP": 0
        },
        {
            "id": 19,
            "name": "Chicago",
            "longitude": -87.6323879,
            "latitude": 41.88325,
            "pop": 2664452,
            "DC": 165,
            "IXP": 10
        },
        {
            "id": 20,
            "name": "Winnipeg",
            "longitude": -97.1385145,
            "latitude": 49.8954221,
            "pop": 749607,
            "DC": 9,
            "IXP": 1
        },
        {
            "id": 21,
            "name": "Regina",
            "longitude": -104.6188944,
            "latitude": 50.4452112,
            "pop": 226404,
            "DC": 3,
            "IXP": 0
        },
        {
            "id": 22,
            "name": "Medicine Hat",
            "longitude": -110.7031976,
            "latitude": 50.0290218,
            "pop": 63138,
            "DC": 0,
            "IXP": 0
        },
        {
            "id": 23,
            "name": "Calgary",
            "longitude": -114.0718831,
            "latitude": 51.0447331,
            "pop": 1306784,
            "DC": 16,
            "IXP": 1
        },
        {
            "id": 24,
            "name": "Lethbridge",
            "longitude": -112.8451067,
            "latitude": 49.6956181,
            "pop": 103197,
            "DC": 1,
            "IXP": 0
        },
        {
            "id": 25,
            "name": "Vancouver",
            "longitude": -123.1207375,
            "latitude": 49.2827291,
            "pop": 662248,
            "DC": 30,
            "IXP": 5
        },
        {
            "id": 26,
            "name": "Seattle",
            "longitude": -122.3328481,
            "latitude": 47.6061389,
            "pop": 780995,
            "DC": 58,
            "IXP": 5
        },
        {
            "id": 27,
            "name": "Victoria",
            "longitude": -123.3656444,
            "latitude": 48.4284207,
            "pop": 289625,
            "DC": 1,
            "IXP": 0
        },
        {
            "id": 28,
            "name": "Courtenay",
            "longitude": -124.9904493,
            "latitude": 49.6841391,
            "pop": 25599,
            "DC": 0,
            "IXP": 0
        },
        {
            "id": 29,
            "name": "Penticton",
            "longitude": -119.5937077,
            "latitude": 49.4991381,
            "pop": 33761,
            "DC": 0,
            "IXP": 0
        },
        {
            "id": 30,
            "name": "Kelowna",
            "longitude": -119.4965917,
            "latitude": 49.8863235,
            "pop": 144576,
            "DC": 4,
            "IXP": 0
        },
        {
            "id": 31,
            "name": "Vernon",
            "longitude": -119.2720107,
            "latitude": 50.2670137,
            "pop": 40116,
            "DC": 0,
            "IXP": 0
        },
        {
            "id": 32,
            "name": "Kamloops",
            "longitude": -120.3272674,
            "latitude": 50.674522,
            "pop": 104460,
            "DC": 3,
            "IXP": 0
        },
        {
            "id": 33,
            "name": "Prince George",
            "longitude": -122.7496693,
            "latitude": 53.9170641,
            "pop": 78943,
            "DC": 2,
            "IXP": 0
        },
        {
            "id": 34,
            "name": "Edmonton",
            "longitude": -113.4937355,
            "latitude": 53.5461663,
            "pop": 1010899,
            "DC": 15,
            "IXP": 1
        },
        {
            "id": 35,
            "name": "Fort McMurray",
            "longitude": -111.3790095,
            "latitude": 56.7266231,
            "pop": 66573,
            "DC": 0,
            "IXP": 0
        },
        {
            "id": 36,
            "name": "Cold Lake",
            "longitude": -110.1731779,
            "latitude": 54.464249,
            "pop": 11595,
            "DC": 0,
            "IXP": 0
        },
        {
            "id": 37,
            "name": "Grande Prairie",
            "longitude": -118.7884808,
            "latitude": 55.170691,
            "pop": 41462,
            "DC": 0,
            "IXP": 0
        },
        {
            "id": 38,
            "name": "Dawson Creek",
            "longitude": -120.2376623,
            "latitude": 55.7596274,
            "pop": 12323,
            "DC": 0,
            "IXP": 0
        }
    ],
    "links": [
        {
            "id": 0,
            "src": 38,
            "dst": 37,
            "length": 148.92
        },
        {
            "id": 1,
            "src": 37,
            "dst": 38,
            "length": 148.92
        },
        {
            "id": 2,
            "src": 34,
            "dst": 37,
            "length": 502.95
        },
        {
            "id": 3,
            "src": 37,
            "dst": 34,
            "length": 502.95
        },
        {
            "id": 4,
            "src": 36,
            "dst": 34,
            "length": 311.97
        },
        {
            "id": 5,
            "src": 34,
            "dst": 36,
            "length": 311.97
        },
        {
            "id": 6,
            "src": 34,
            "dst": 35,
            "length": 492.2
        },
        {
            "id": 7,
            "src": 35,
            "dst": 34,
            "length": 492.2
        },
        {
            "id": 8,
            "src": 23,
            "dst": 34,
            "length": 364.9
        },
        {
            "id": 9,
            "src": 34,
            "dst": 23,
            "length": 364.9
        },
        {
            "id": 10,
            "src": 32,
            "dst": 34,
            "length": 736.01
        },
        {
            "id": 11,
            "src": 34,
            "dst": 32,
            "length": 736.01
        },
        {
            "id": 12,
            "src": 33,
            "dst": 32,
            "length": 516.65
        },
        {
            "id": 13,
            "src": 32,
            "dst": 33,
            "length": 516.65
        },
        {
            "id": 14,
            "src": 31,
            "dst": 32,
            "length": 114.54
        },
        {
            "id": 15,
            "src": 32,
            "dst": 31,
            "length": 114.54
        },
        {
            "id": 16,
            "src": 29,
            "dst": 30,
            "length": 58.26
        },
        {
            "id": 17,
            "src": 30,
            "dst": 29,
            "length": 58.26
        },
        {
            "id": 18,
            "src": 30,
            "dst": 31,
            "length": 58.46
        },
        {
            "id": 19,
            "src": 31,
            "dst": 30,
            "length": 58.46
        },
        {
            "id": 20,
            "src": 25,
            "dst": 32,
            "length": 330.46
        },
        {
            "id": 21,
            "src": 32,
            "dst": 25,
            "length": 330.46
        },
        {
            "id": 22,
            "src": 27,
            "dst": 25,
            "length": 123.56
        },
        {
            "id": 23,
            "src": 25,
            "dst": 27,
            "length": 123.56
        },
        {
            "id": 24,
            "src": 26,
            "dst": 25,
            "length": 253.82
        },
        {
            "id": 25,
            "src": 25,
            "dst": 26,
            "length": 253.82
        },
        {
            "id": 26,
            "src": 26,
            "dst": 27,
            "length": 155.41
        },
        {
            "id": 27,
            "src": 27,
            "dst": 26,
            "length": 155.41
        },
        {
            "id": 28,
            "src": 28,
            "dst": 27,
            "length": 237.94
        },
        {
            "id": 29,
            "src": 27,
            "dst": 28,
            "length": 237.94
        },
        {
            "id": 30,
            "src": 24,
            "dst": 23,
            "length": 229.23
        },
        {
            "id": 31,
            "src": 23,
            "dst": 24,
            "length": 229.23
        },
        {
            "id": 32,
            "src": 22,
            "dst": 23,
            "length": 342.75
        },
        {
            "id": 33,
            "src": 23,
            "dst": 22,
            "length": 342.75
        },
        {
            "id": 34,
            "src": 22,
            "dst": 21,
            "length": 561.27
        },
        {
            "id": 35,
            "src": 21,
            "dst": 22,
            "length": 561.27
        },
        {
            "id": 36,
            "src": 20,
            "dst": 21,
            "length": 694.02
        },
        {
            "id": 37,
            "src": 21,
            "dst": 20,
            "length": 694.02
        },
        {
            "id": 38,
            "src": 19,
            "dst": 20,
            "length": 1499.08
        },
        {
            "id": 39,
            "src": 20,
            "dst": 19,
            "length": 1499.08
        },
        {
            "id": 40,
            "src": 20,
            "dst": 18,
            "length": 1624.7
        },
        {
            "id": 41,
            "src": 18,
            "dst": 20,
            "length": 1624.7
        },
        {
            "id": 42,
            "src": 19,
            "dst": 15,
            "length": 911.24
        },
        {
            "id": 43,
            "src": 15,
            "dst": 19,
            "length": 911.24
        },
        {
            "id": 44,
            "src": 18,
            "dst": 15,
            "length": 443.87
        },
        {
            "id": 45,
            "src": 15,
            "dst": 18,
            "length": 443.87
        },
        {
            "id": 46,
            "src": 17,
            "dst": 15,
            "length": 122.04
        },
        {
            "id": 47,
            "src": 15,
            "dst": 17,
            "length": 122.04
        },
        {
            "id": 48,
            "src": 16,
            "dst": 17,
            "length": 610.25
        },
        {
            "id": 49,
            "src": 17,
            "dst": 16,
            "length": 610.25
        },
        {
            "id": 50,
            "src": 14,
            "dst": 15,
            "length": 456.83
        },
        {
            "id": 51,
            "src": 15,
            "dst": 14,
            "length": 456.83
        },
        {
            "id": 52,
            "src": 16,
            "dst": 13,
            "length": 700.81
        },
        {
            "id": 53,
            "src": 13,
            "dst": 16,
            "length": 700.81
        },
        {
            "id": 54,
            "src": 14,
            "dst": 13,
            "length": 218.79
        },
        {
            "id": 55,
            "src": 13,
            "dst": 14,
            "length": 218.79
        },
        {
            "id": 56,
            "src": 12,
            "dst": 13,
            "length": 176.85
        },
        {
            "id": 57,
            "src": 13,
            "dst": 12,
            "length": 176.85
        },
        {
            "id": 58,
            "src": 13,
            "dst": 7,
            "length": 303.56
        },
        {
            "id": 59,
            "src": 7,
            "dst": 13,
            "length": 303.56
        },
        {
            "id": 60,
            "src": 12,
            "dst": 7,
            "length": 217.85
        },
        {
            "id": 61,
            "src": 7,
            "dst": 12,
            "length": 217.85
        },
        {
            "id": 62,
            "src": 7,
            "dst": 8,
            "length": 227.39
        },
        {
            "id": 63,
            "src": 8,
            "dst": 7,
            "length": 227.39
        },
        {
            "id": 64,
            "src": 9,
            "dst": 8,
            "length": 242.02
        },
        {
            "id": 65,
            "src": 8,
            "dst": 9,
            "length": 242.02
        },
        {
            "id": 66,
            "src": 9,
            "dst": 10,
            "length": 119.57
        },
        {
            "id": 67,
            "src": 10,
            "dst": 9,
            "length": 119.57
        },
        {
            "id": 68,
            "src": 10,
            "dst": 11,
            "length": 221.01
        },
        {
            "id": 69,
            "src": 11,
            "dst": 10,
            "length": 221.01
        },
        {
            "id": 70,
            "src": 6,
            "dst": 7,
            "length": 475.04
        },
        {
            "id": 71,
            "src": 7,
            "dst": 6,
            "length": 475.04
        },
        {
            "id": 72,
            "src": 5,
            "dst": 6,
            "length": 117.26
        },
        {
            "id": 73,
            "src": 6,
            "dst": 5,
            "length": 117.26
        },
        {
            "id": 74,
            "src": 5,
            "dst": 4,
            "length": 174.52
        },
        {
            "id": 75,
            "src": 4,
            "dst": 5,
            "length": 174.52
        },
        {
            "id": 76,
            "src": 3,
            "dst": 4,
            "length": 168.44
        },
        {
            "id": 77,
            "src": 4,
            "dst": 3,
            "length": 168.44
        },
        {
            "id": 78,
            "src": 2,
            "dst": 5,
            "length": 270.62
        },
        {
            "id": 79,
            "src": 5,
            "dst": 2,
            "length": 270.62
        },
        {
            "id": 80,
            "src": 2,
            "dst": 1,
            "length": 165.38
        },
        {
            "id": 81,
            "src": 1,
            "dst": 2,
            "length": 165.38
        },
        {
            "id": 82,
            "src": 1,
            "dst": 3,
            "length": 110.59
        },
        {
            "id": 83,
            "src": 3,
            "dst": 1,
            "length": 110.59
        },
        {
            "id": 84,
            "src": 1,
            "dst": 0,
            "length": 1020.75
        },
        {
            "id": 85,
            "src": 0,
            "dst": 1,
            "length": 1020.75
        },
        {
            "id": 86,
            "src": 2,
            "dst": 0,
            "length": 1172.78
        },
        {
            "id": 87,
            "src": 0,
            "dst": 2,
            "length": 1172.78
        }
    ],
    "Source": {
        "url": "https://memorial.bellsystem.com/canadian_bell_companies.html",
        "paper": null,
        "doi": null
    },
    "capacity": {
        "pop": 0.015,
        "DC": 400,
        "IXP": 2857
    }
}